Date_Time,EnsNo,BT1Depth,BT2Depth,BT3Depth,BT4Depth,BTDepth,AltiDepth,AltiDepthQ,BeamDepth,DEPTH,D_Source,VEast,VNorth,Vel_avg,Dir_avg,Range,BTEast,BTNorth,GPSEast,GPSNorth,LAT,LON,GPSHeading,GPSBearing,DistTravelled,SHeading,SPitch,SRoll,STempC,fom1,fom2,fom3,fom4,SoundSpd,Valid,CorrSrc,BT1Vel,BT2Vel,BT3Vel,BT4Vel
2021-06-16T17:29:43.43,0,48.699,46.714,45.821,47.508,47.147,19.197,13373,19.958,47.147,2,0.143,0.136,0.197,46.6,81,0.113,0.101,0.028,-0.112,46.33049585,-79.40307748,213.47,-32768.00,0.00,168.07,-0.87,-1.86,20.05,552,510,494,538,1460.00,0,BT,-3.396,-3.408,-3.413,-3.400
2021-06-16T17:29:44.43,1,46.814,44.630,45.226,46.615,45.784,19.212,12911,20.019,45.784,2,0.134,0.115,0.177,49.2,79,0.106,0.083,-0.035,-0.095,46.33049487,-79.40307715,214.36,176.64,0.13,170.35,-0.82,-1.79,20.06,560,539,539,541,1460.00,0,BT,-3.436,-3.442,-3.442,-3.441
2021-06-16T17:29:45.43,2,47.806,44.332,44.829,46.317,45.788,0.600,12474,20.026,45.788,2,0.134,0.112,0.174,50.0,79,0.110,0.078,-0.016,-0.086,46.33049719,-79.40307060,215.12,195.68,0.27,171.84,-0.61,-1.70,20.05,479,409,419,460,1460.00,0,BT,-3.394,-3.410,-3.409,-3.401
2021-06-16T17:29:46.43,3,43.836,44.531,45.226,46.417,44.973,19.243,13008,20.047,44.973,2,0.133,0.106,0.170,51.6,77,0.110,0.060,-0.001,-0.112,46.33049337,-79.40307749,215.92,178.24,0.39,172.54,-0.63,-1.77,20.05,246,244,246,247,1460.00,0,BT,-3.475,-3.475,-3.474,-3.476
2021-06-16T17:29:47.43,4,47.806,44.531,44.630,46.714,45.889,19.227,13025,20.101,45.889,2,0.108,0.095,0.144,48.8,79,0.109,0.068,-0.025,-0.092,46.33049254,-79.40307701,216.76,183.18,0.52,174.34,-0.55,-1.63,20.05,476,425,434,461,1460.00,0,BT,-3.440,-3.456,-3.452,-3.448
2021-06-16T17:29:48.43,5,48.997,44.432,44.928,46.515,46.183,19.289,13062,20.063,46.183,2,0.111,0.109,0.155,45.5,79,0.115,0.100,-0.005,-0.115,46.33049116,-79.40307733,217.55,194.67,0.68,174.84,-0.66,-1.64,20.05,648,500,508,573,1460.00,0,BT,-3.423,-3.459,-3.457,-3.444
2021-06-16T17:29:49.43,6,47.409,44.432,45.324,46.317,45.832,19.334,12870,20.078,45.832,2,0.129,0.114,0.172,48.6,79,0.132,0.082,0.012,-0.115,46.33048944,-79.40307805,218.44,172.10,0.83,175.69,-0.79,-1.86,20.05,524,425,462,492,1460.00,0,BT,-3.429,-3.451,-3.441,-3.436
2021-06-16T17:29:50.43,7,49.096,42.347,45.226,46.417,45.736,19.368,12754,20.140,45.736,2,0.135,0.093,0.164,55.3,79,0.105,0.045,-0.049,-0.075,46.33048953,-79.40307751,219.22,197.17,0.95,177.86,-0.43,-1.60,20.05,242,224,227,225,1460.00,0,BT,-3.473,-3.478,-3.477,-3.476
2021-06-16T17:29:51.43,8,48.699,53.672,44.432,46.317,48.277,19.363,12762,20.103,48.277,2,0.150,0.117,0.190,52.0,83,0.135,0.085,-0.008,-0.121,46.33048794,-79.40307796,219.94,191.09,1.11,178.49,-0.60,-1.66,20.04,605,218,469,525,1460.00,0,BT,-3.409,-3.453,-3.437,-3.425
2021-06-16T17:29:52.43,9,48.798,58.833,44.928,46.515,49.779,19.368,13159,20.124,49.779,2,0.162,0.111,0.197,55.6,86,0.163,0.088,-0.013,-0.110,46.33048615,-79.40307863,220.80,176.74,1.29,179.64,-0.73,-1.84,20.03,606,267,506,564,1460.00,0,BT,-3.408,-3.460,-3.431,-3.420
2021-06-16T17:29:53.43,10,48.997,61.810,44.928,46.317,50.535,19.253,13009,20.180,50.535,2,0.148,0.107,0.183,54.1,87,0.106,0.079,-0.030,-0.088,46.33048549,-79.40307775,221.52,189.16,1.42,180.62,-0.62,-1.59,20.03,556,498,449,512,1460.00,0,BT,-3.427,-3.447,-3.454,-3.442
2021-06-16T17:29:54.43,11,49.096,55.955,45.324,46.417,49.203,19.404,13075,20.185,49.203,2,0.115,0.080,0.140,55.2,85,0.102,0.036,-0.005,-0.105,46.33048474,-79.40307817,222.12,198.29,1.53,182.21,-0.56,-1.58,20.03,249,248,247,246,1460.00,0,BT,-3.490,-3.484,-3.484,-3.486
2021-06-16T17:29:55.43,12,48.897,53.672,45.424,46.218,48.550,19.421,12606,20.191,48.550,2,0.108,0.069,0.128,57.4,84,0.095,0.049,-0.001,-0.116,46.33048311,-79.40307832,222.93,175.38,1.64,182.52,-0.67,-1.64,20.02,217,242,223,222,1460.00,0,BT,-3.470,-3.460,-3.471,-3.471
2021-06-16T17:29:56.43,13,48.798,61.115,45.226,46.020,50.310,19.458,12916,20.217,50.310,2,0.121,0.097,0.155,51.5,87,0.116,0.078,-0.020,-0.110,46.33048175,-79.40307850,223.72,183.68,1.78,183.77,-0.72,-1.65,20.02,572,478,494,511,1460.00,0,BT,-3.418,-3.444,-3.441,-3.437
2021-06-16T17:29:57.43,14,48.500,61.214,44.233,46.218,50.062,0.600,12456,20.229,50.062,2,0.144,0.106,0.178,53.6,86,0.121,0.073,-0.014,-0.110,46.33048272,-79.40307160,224.50,183.85,1.92,184.85,-0.69,-1.71,20.02,520,437,420,469,1460.00,0,BT,-3.467,-3.487,-3.489,-3.481
2021-06-16T17:29:58.43,15,48.202,49.107,43.935,46.118,46.822,20.119,12920,20.250,46.822,2,0.118,0.086,0.146,54.1,81,0.079,0.042,-0.017,-0.098,46.33047960,-79.40307928,225.27,183.13,2.01,185.72,-0.63,-1.71,20.02,259,256,253,257,1460.00,0,BT,-3.488,-3.458,-3.488,-3.488
2021-06-16T17:29:59.43,16,44.233,44.134,44.035,46.218,44.626,20.175,12728,20.267,44.626,2,0.134,0.058,0.146,66.5,77,0.116,0.043,-0.022,-0.090,46.33047850,-79.40307939,225.95,190.52,2.13,187.15,-0.65,-1.67,20.02,239,238,241,244,1460.00,0,BT,-3.487,-3.487,-3.487,-3.484
2021-06-16T17:30:00.43,17,55.062,54.069,44.531,46.020,49.906,20.193,12805,20.282,49.906,2,0.169,0.043,0.175,75.7,86,0.172,0.007,-0.002,-0.120,46.33047706,-79.40307986,226.70,183.38,2.30,187.98,-0.74,-1.74,20.01,234,223,460,504,1460.00,0,BT,-3.475,-3.475,-3.444,-3.428
2021-06-16T17:30:01.43,18,54.466,56.252,44.531,46.118,50.337,19.516,12972,20.302,50.337,2,0.193,0.024,0.194,82.9,87,0.165,0.001,-0.013,-0.095,46.33047610,-79.40307935,227.42,186.90,2.47,189.21,-0.71,-1.64,20.01,250,213,462,521,1460.00,0,BT,-3.461,-3.460,-3.427,-3.412
2021-06-16T17:30:02.43,19,61.412,55.062,44.233,45.920,51.645,19.563,12840,20.323,51.645,2,0.155,-0.042,0.161,105.3,89,0.110,-0.131,-0.010,-0.082,46.33047578,-79.40307977,228.07,187.12,2.64,190.34,-0.53,-1.70,20.01,490,231,588,295,1460.00,0,BT,-3.469,-3.511,-3.334,-3.508
2021-06-16T17:30:03.43,20,54.665,61.612,44.035,46.317,51.669,20.272,12892,20.334,51.669,2,0.137,-0.033,0.140,103.5,89,0.127,0.008,-0.001,-0.118,46.33047410,-79.40308086,228.75,181.13,2.77,191.93,-0.68,-1.85,20.01,242,483,426,501,1460.00,0,BT,-3.466,-3.429,-3.442,-3.426
2021-06-16T17:30:04.43,21,62.107,61.512,45.226,45.920,53.694,20.279,13308,20.359,53.694,2,0.140,0.046,0.148,71.9,93,0.122,0.038,-0.011,-0.098,46.33047300,-79.40308047,229.44,182.28,2.90,192.65,-0.70,-1.74,20.01,227,222,223,223,1460.00,0,BT,-3.513,-3.514,-3.512,-3.513
2021-06-16T17:30:05.43,22,63.199,53.771,44.134,46.020,51.752,20.312,12612,20.384,51.752,2,0.153,0.084,0.174,61.3,89,0.152,0.082,-0.015,-0.086,46.33047187,-79.40308051,230.17,186.59,3.07,192.53,-0.73,-1.70,20.01,611,271,465,531,1460.00,0,BT,-3.459,-3.510,-3.498,-3.485
2021-06-16T17:30:06.43,23,63.695,61.810,44.432,46.118,54.016,20.255,12792,20.405,54.016,2,0.243,0.075,0.255,72.8,94,0.221,0.052,-0.013,-0.108,46.33047106,-79.40308060,230.87,177.96,3.29,194.46,-0.64,-1.73,20.01,587,516,480,674,1460.00,0,BT,-3.441,-3.462,-3.468,-3.377
2021-06-16T17:30:07.43,24,63.795,60.520,44.035,46.020,53.587,20.268,12683,20.424,53.587,2,0.211,0.085,0.227,68.0,93,0.149,0.069,-0.007,-0.096,46.33046996,-79.40308097,231.54,191.53,3.46,195.67,-0.69,-1.74,20.01,560,411,433,506,1460.00,0,BT,-3.471,-3.508,-3.504,-3.489
2021-06-16T17:30:08.43,25,63.597,54.069,44.829,45.821,52.054,20.225,12873,20.425,52.054,2,0.170,0.078,0.187,65.4,90,0.138,0.032,-0.010,-0.094,46.33046903,-79.40308107,232.21,184.91,3.60,196.02,-0.69,-1.73,20.01,251,216,247,250,1460.00,0,BT,-3.529,-3.544,-3.531,-3.531
2021-06-16T17:30:09.43,26,63.597,46.615,45.027,46.218,50.316,20.362,12807,20.437,50.316,2,0.147,0.077,0.166,62.4,87,0.121,0.066,-0.007,-0.086,46.33046828,-79.40308133,232.86,188.95,3.74,197.05,-0.63,-1.73,20.01,517,471,418,450,1460.00,0,BT,-3.463,-3.484,-3.496,-3.489
2021-06-16T17:30:10.43,27,64.092,54.466,45.126,46.317,52.477,20.383,12892,20.439,52.477,2,0.160,0.084,0.181,62.1,91,0.165,0.070,-0.017,-0.100,46.33046729,-79.40308174,233.53,193.61,3.92,197.88,-0.65,-1.74,20.02,687,282,529,599,1460.00,0,BT,-3.414,-3.473,-3.457,-3.441
2021-06-16T17:30:11.43,28,63.894,54.069,45.226,47.905,52.743,20.406,12540,20.439,52.743,2,0.165,0.075,0.181,65.7,91,0.122,0.050,-0.028,-0.087,46.33046633,-79.40308203,234.18,192.72,4.05,199.12,-0.65,-1.73,20.02,552,214,519,212,1460.00,0,BT,-3.427,-3.487,-3.448,-3.490
2021-06-16T17:30:12.43,29,63.894,61.115,44.134,47.706,54.206,20.399,13278,20.460,54.206,2,0.141,0.058,0.152,67.5,94,0.120,0.024,-0.020,-0.082,46.33046551,-79.40308220,234.87,196.17,4.17,199.76,-0.63,-1.69,20.02,223,219,216,221,1460.00,0,BT,-3.506,-3.507,-3.507,-3.508
2021-06-16T17:30:13.43,30,63.894,60.221,44.432,48.103,54.147,20.398,12743,20.465,54.147,2,0.173,0.063,0.184,69.9,94,0.166,0.056,-0.031,-0.109,46.33046414,-79.40308302,235.60,197.86,4.35,200.93,-0.73,-1.74,20.02,571,396,457,542,1460.00,0,BT,-3.468,-3.508,-3.498,-3.478
2021-06-16T17:30:14.43,31,63.993,54.168,44.134,46.020,52.055,20.401,12851,20.486,52.055,2,0.154,0.076,0.172,63.9,90,0.144,0.058,-0.023,-0.098,46.33046344,-79.40308337,236.33,195.69,4.50,202.42,-0.62,-1.74,20.02,573,251,425,488,1460.00,0,BT,-3.472,-3.510,-3.509,-3.499
2021-06-16T17:30:15.43,32,63.397,54.267,45.523,46.317,52.353,20.374,13002,20.504,52.353,2,0.175,0.060,0.185,71.0,91,0.174,0.033,-0.042,-0.093,46.33046244,-79.40308384,237.02,207.33,4.68,203.35,-0.65,-1.70,20.02,551,249,501,501,1460.00,0,BT,-3.437,-3.499,-3.458,-3.457
2021-06-16T17:30:16.43,33,63.695,59.825,44.928,46.814,53.806,20.412,12866,20.517,53.806,2,0.196,0.057,0.204,73.7,93,0.187,0.056,-0.016,-0.098,46.33046139,-79.40308454,237.70,198.00,4.87,203.79,-0.69,-1.74,20.03,647,428,546,602,1460.00,0,BT,-3.446,-3.515,-3.488,-3.471
2021-06-16T17:30:17.43,34,63.397,61.810,45.226,46.020,54.118,20.447,12778,20.540,54.118,2,0.171,0.052,0.179,73.0,94,0.121,0.014,-0.028,-0.075,46.33046070,-79.40308459,238.37,197.95,5.00,204.96,-0.62,-1.67,20.02,236,237,238,240,1460.00,0,BT,-3.566,-3.565,-3.565,-3.565
2021-06-16T17:30:18.43,35,63.298,54.267,44.332,45.721,51.882,20.384,13129,20.541,51.882,2,0.167,0.045,0.173,74.9,90,0.177,0.036,-0.041,-0.092,46.33045976,-79.40308541,239.03,207.71,5.18,205.42,-0.66,-1.71,20.02,573,244,486,510,1460.00,0,BT,-3.486,-3.547,-3.514,-3.507
2021-06-16T17:30:19.43,36,57.047,57.145,44.332,45.821,51.081,20.459,12852,20.562,51.081,2,0.173,0.053,0.181,73.1,88,0.125,0.015,-0.019,-0.094,46.33045869,-79.40308613,239.69,199.46,5.30,206.55,-0.70,-1.74,20.02,236,222,227,226,1460.00,0,BT,-3.482,-3.483,-3.481,-3.483
2021-06-16T17:30:20.43,37,62.901,62.107,44.134,46.020,53.792,20.472,13063,20.578,53.792,2,0.152,0.052,0.161,71.1,93,0.132,0.036,-0.028,-0.093,46.33045779,-79.40308683,240.35,198.08,5.44,207.48,-0.70,-1.79,20.03,490,467,409,455,1460.00,0,BT,-3.486,-3.494,-3.505,-3.497
2021-06-16T17:30:21.43,38,49.802,57.145,45.126,45.821,49.480,20.454,12957,20.576,49.480,2,0.139,0.040,0.144,73.7,85,0.128,0.028,-0.022,-0.109,46.33045660,-79.40308711,241.05,202.17,5.57,208.05,-0.75,-1.71,20.03,297,236,238,235,1460.00,0,BT,-3.534,-3.541,-3.543,-3.542
2021-06-16T17:30:22.43,39,48.798,61.314,44.332,45.821,50.088,20.524,13520,20.576,50.088,2,0.144,0.041,0.150,74.3,86,0.124,0.014,-0.039,-0.072,46.33045595,-79.40308768,241.76,209.58,5.69,208.67,-0.69,-1.70,20.03,228,227,216,223,1460.00,0,BT,-3.542,-3.542,-3.543,-3.543
2021-06-16T17:30:23.43,40,48.004,53.077,44.332,45.920,47.829,20.518,13559,20.574,47.829,2,0.150,0.033,0.153,77.7,82,0.122,0.005,-0.043,-0.079,46.33045513,-79.40308832,242.43,209.41,5.82,210.55,-0.66,-1.69,20.03,241,272,237,242,1460.00,0,BT,-3.570,-3.566,-3.566,-3.567
2021-06-16T17:30:24.43,41,49.096,47.706,44.332,45.920,46.739,20.545,13400,20.585,46.739,2,0.147,0.027,0.150,79.4,80,0.128,0.037,-0.056,-0.080,46.33045452,-79.40308930,243.09,209.34,5.95,211.56,-0.60,-1.77,20.03,551,532,457,517,1460.00,0,BT,-3.464,-3.470,-3.493,-3.477
2021-06-16T17:30:25.43,42,49.394,47.111,44.332,45.721,46.611,20.524,12720,20.586,46.611,2,0.142,0.021,0.144,81.8,80,0.113,-0.023,-0.043,-0.086,46.33045313,-79.40309011,243.76,202.89,6.07,212.39,-0.75,-1.77,20.03,216,482,454,464,1460.00,0,BT,-3.552,-3.514,-3.521,-3.519
2021-06-16T17:30:26.43,43,49.691,47.607,44.531,45.821,46.888,20.575,13402,20.597,46.888,2,0.145,0.042,0.151,73.8,81,0.124,0.045,-0.045,-0.093,46.33045257,-79.40309053,244.37,202.40,6.20,213.42,-0.60,-1.77,20.04,616,577,487,530,1460.00,0,BT,-3.480,-3.494,-3.517,-3.508
2021-06-16T17:30:27.43,44,49.294,48.103,44.630,45.821,46.936,20.534,12673,20.581,46.936,2,0.151,0.050,0.159,71.6,81,0.134,0.013,-0.047,-0.084,46.33045119,-79.40309156,244.98,203.90,6.33,213.78,-0.76,-1.81,20.04,240,227,234,230,1460.00,0,BT,-3.537,-3.537,-3.543,-3.538
2021-06-16T17:30:28.43,45,49.493,46.615,44.332,46.317,46.656,20.584,13113,20.589,46.656,2,0.176,0.064,0.187,70.0,80,0.143,0.042,-0.040,-0.090,46.33045016,-79.40309199,245.65,198.91,6.48,214.87,-0.75,-1.78,20.04,579,228,450,225,1460.00,0,BT,-3.440,-3.503,-3.474,-3.503
2021-06-16T17:30:29.43,46,49.493,48.004,45.324,46.218,47.237,20.525,12883,20.611,47.237,2,0.165,0.041,0.170,76.1,81,0.123,-0.007,-0.040,-0.069,46.33044950,-79.40309198,246.27,204.02,6.61,215.51,-0.66,-1.69,20.04,245,233,233,244,1460.00,0,BT,-3.496,-3.495,-3.491,-3.493
2021-06-16T17:30:30.43,47,49.493,48.004,44.432,47.806,47.401,20.565,13126,20.579,47.401,2,0.156,0.043,0.162,74.5,82,0.140,0.046,-0.050,-0.100,46.33044836,-79.40309304,246.89,207.98,6.75,217.08,-0.75,-1.73,20.04,646,603,512,596,1460.00,0,BT,-3.469,-3.484,-3.507,-3.487
2021-06-16T17:30:31.43,48,49.493,48.004,44.432,45.920,46.932,20.548,12859,20.598,46.932,2,0.161,0.056,0.171,71.0,81,0.142,0.004,-0.044,-0.101,46.33044730,-79.40309441,247.52,202.12,6.89,217.66,-0.81,-1.87,20.04,248,233,238,244,1460.00,0,BT,-3.521,-3.524,-3.523,-3.523
2021-06-16T17:30:32.43,49,49.493,42.744,44.432,46.020,45.628,20.588,13420,20.597,45.628,2,0.150,0.025,0.152,80.6,78,0.121,-0.002,-0.056,-0.079,46.33044646,-79.40309463,248.12,216.35,7.02,218.32,-0.73,-1.73,20.04,216,244,229,229,1460.00,0,BT,-3.530,-3.523,-3.526,-3.528
2021-06-16T17:30:33.43,50,49.294,49.405,45.324,46.020,47.490,20.571,12973,20.600,47.490,2,0.150,0.026,0.152,80.3,82,0.138,0.003,-0.050,-0.085,46.33044544,-79.40309554,248.71,213.09,7.15,219.64,-0.79,-1.73,20.04,271,256,263,264,1460.00,0,BT,-3.520,-3.528,-3.524,-3.521
2021-06-16T17:30:34.43,51,48.798,44.134,44.432,45.821,45.756,20.593,13140,20.611,45.756,2,0.177,0.042,0.182,76.7,79,0.165,0.021,-0.049,-0.097,46.33044448,-79.40309657,249.34,204.10,7.32,220.47,-0.79,-1.80,20.05,546,427,444,502,1460.00,0,BT,-3.465,-3.497,-3.494,-3.480
2021-06-16T17:30:35.43,52,48.997,47.211,44.630,45.821,46.638,20.598,13173,20.630,46.638,2,0.169,0.045,0.175,75.0,80,0.129,0.027,-0.059,-0.069,46.33044371,-79.40309703,249.94,219.32,7.45,221.25,-0.73,-1.71,20.04,459,425,384,396,1460.00,0,BT,-3.480,-3.489,-3.505,-3.497
2021-06-16T17:30:36.43,53,47.905,47.806,44.928,45.920,46.616,20.616,13307,20.668,46.616,2,0.162,0.000,0.162,90.0,80,0.139,-0.022,-0.049,-0.094,46.33044302,-79.40309794,250.53,204.52,7.59,222.53,-0.68,-1.79,20.04,245,244,241,218,1460.00,0,BT,-3.580,-3.579,-3.574,-3.569
2021-06-16T17:30:37.43,54,48.897,48.897,52.073,45.920,48.940,20.660,12877,20.727,48.940,2,0.127,0.001,0.127,89.5,84,0.073,-0.027,-0.059,-0.064,46.33044261,-79.40309734,251.10,219.04,7.67,223.78,-0.40,-1.54,20.04,572,582,602,521,1460.00,0,BT,-3.501,-3.498,-3.485,-3.521
2021-06-16T17:30:38.43,55,54.764,44.332,45.324,46.020,47.571,20.714,13382,20.732,47.571,2,0.131,-0.061,0.145,114.9,82,0.126,-0.137,-0.051,-0.061,46.33044561,-79.40309959,251.65,222.31,7.86,229.31,0.48,-2.31,20.03,257,442,483,523,1460.00,0,BT,-3.565,-3.542,-3.537,-3.528
2021-06-16T17:30:39.43,56,62.206,43.538,45.721,45.623,49.231,20.661,13075,20.785,49.231,2,0.194,-0.105,0.220,118.4,85,0.152,-0.110,-0.129,-0.142,46.33044496,-79.40310107,252.45,211.26,8.04,230.49,0.54,-2.49,20.04,442,371,427,436,1460.00,0,BT,-3.501,-3.519,-3.509,-3.504
2021-06-16T17:30:40.43,57,63.298,45.920,45.821,45.920,50.226,20.686,13475,20.888,50.226,2,0.215,-0.073,0.227,108.7,87,0.110,-0.100,-0.310,-0.190,46.33044353,-79.40310236,253.91,230.58,8.19,233.90,0.85,-2.23,20.04,639,575,569,533,1460.00,0,BT,-3.507,-3.526,-3.527,-3.532
2021-06-16T17:30:41.43,58,62.803,47.309,47.409,45.920,50.854,20.802,13155,20.864,50.854,2,0.212,-0.064,0.222,106.8,88,0.088,-0.110,-0.454,-0.310,46.33044003,-79.40310670,256.39,237.73,8.33,236.98,0.67,-1.95,20.04,206,207,212,212,1460.00,0,BT,-3.568,-3.566,-3.565,-3.567
2021-06-16T17:30:42.43,59,62.703,48.500,48.202,46.020,51.336,20.738,12737,20.825,51.336,2,0.222,-0.054,0.228,103.6,89,0.088,-0.083,-0.643,-0.434,46.33043488,-79.40311671,260.29,236.08,8.45,242.51,0.20,-2.15,20.03,606,618,613,535,1460.00,0,BT,-3.454,-3.449,-3.451,-3.469
2021-06-16T17:30:43.43,60,61.214,48.699,48.202,46.118,51.026,20.725,12827,20.885,51.026,2,0.233,-0.048,0.238,101.5,88,0.082,-0.103,-0.786,-0.386,46.33043022,-79.40312805,265.09,239.14,8.58,249.29,-0.05,-2.37,20.03,512,622,604,542,1460.00,0,BT,-3.468,-3.435,-3.444,-3.460
2021-06-16T17:30:44.43,61,54.367,47.211,47.508,45.821,48.680,20.518,12838,20.970,48.680,2,0.253,-0.079,0.266,107.4,84,0.075,-0.140,-0.950,-0.387,46.33042539,-79.40314187,270.48,243.86,8.74,255.41,-0.31,-2.55,20.03,235,569,581,507,1460.00,0,BT,-3.493,-3.440,-3.438,-3.454
2021-06-16T17:30:45.43,62,60.718,42.546,46.317,46.417,48.915,20.377,13470,20.979,48.915,2,0.296,-0.098,0.311,108.3,84,0.131,-0.120,-1.019,-0.346,46.33042120,-79.40315625,276.28,248.52,8.92,262.82,-0.42,-2.60,20.03,223,233,228,232,1460.00,0,BT,-3.485,-3.485,-3.485,-3.484
2021-06-16T17:30:46.43,63,54.466,31.629,46.118,44.928,44.135,20.327,13877,20.975,44.135,2,0.364,-0.127,0.385,109.2,76,0.136,-0.177,-1.186,-0.244,46.33041801,-79.40317410,282.39,254.39,9.14,269.95,-0.78,-2.87,20.03,268,265,465,428,1460.00,0,BT,-3.534,-3.535,-3.505,-3.511
2021-06-16T17:30:47.43,64,46.615,31.729,43.638,46.615,41.999,20.221,13014,20.895,41.999,2,0.411,-0.173,0.446,112.9,72,0.186,-0.158,-1.217,-0.129,46.33041544,-79.40319210,288.71,260.14,9.39,277.01,-0.99,-2.84,20.03,523,267,407,507,1460.00,0,BT,-3.428,-3.463,-3.454,-3.433
2021-06-16T17:30:48.43,65,46.714,31.431,46.515,46.714,42.694,20.246,13540,20.790,42.694,2,0.421,-0.209,0.470,116.3,73,0.156,-0.194,-1.254,-0.013,46.33041447,-79.40321014,294.83,265.91,9.64,282.77,-1.10,-2.84,20.04,551,253,533,538,1460.00,0,BT,-3.449,-3.493,-3.454,-3.453
2021-06-16T17:30:49.43,66,46.814,31.927,45.920,46.714,42.699,20.156,13172,20.697,42.699,2,0.377,-0.244,0.449,122.9,73,0.113,-0.167,-1.300,0.154,46.33041516,-79.40322831,300.74,273.32,9.84,289.55,-1.02,-2.81,20.04,237,223,235,237,1460.00,0,BT,-3.504,-3.504,-3.504,-3.504
2021-06-16T17:30:50.43,67,46.118,32.323,46.515,46.118,42.626,20.150,13088,20.609,42.626,2,0.358,-0.288,0.459,128.8,73,0.097,-0.216,-1.282,0.283,46.33041751,-79.40324706,306.44,279.45,10.08,295.28,-1.08,-2.90,20.04,399,224,431,391,1460.00,0,BT,-3.461,-3.493,-3.455,-3.463
2021-06-16T17:30:51.43,68,45.623,31.431,44.928,46.020,41.861,20.077,13005,20.481,41.861,2,0.338,-0.354,0.490,136.4,72,0.092,-0.224,-1.269,0.450,46.33042058,-79.40326501,311.93,286.02,10.32,300.44,-1.08,-2.75,20.04,455,217,420,466,1460.00,0,BT,-3.466,-3.500,-3.473,-3.462
2021-06-16T17:30:52.43,69,44.928,33.526,46.118,46.317,42.583,19.893,13349,20.261,42.583,2,0.311,-0.355,0.472,138.8,73,0.058,-0.197,-1.246,0.589,46.33042615,-79.40328308,317.22,292.04,10.52,305.52,-1.12,-2.96,20.05,447,322,482,483,1460.00,0,BT,-3.440,-3.431,-3.433,-3.431
2021-06-16T17:30:53.43,70,45.226,30.946,46.118,46.814,42.110,19.775,13484,20.046,42.110,2,0.263,-0.364,0.449,144.1,72,0.056,-0.202,-1.169,0.679,46.33043235,-79.40330096,322.11,297.17,10.73,309.91,-1.36,-3.02,20.05,417,326,450,451,1460.00,0,BT,-3.454,-3.439,-3.445,-3.444
2021-06-16T17:30:54.43,71,44.531,32.038,46.218,46.020,42.062,19.580,13313,19.856,42.062,2,0.255,-0.358,0.440,144.5,72,0.056,-0.123,-1.085,0.818,46.33043907,-79.40331638,326.53,303.84,10.87,313.87,-1.24,-2.86,20.05,255,300,267,251,1460.00,0,BT,-3.479,-3.412,-3.476,-3.481
2021-06-16T17:30:55.43,72,46.218,31.046,46.515,46.317,42.377,19.404,13103,19.731,42.377,2,0.226,-0.386,0.447,149.6,73,0.019,-0.218,-1.027,0.918,46.33044729,-79.40333099,330.40,310.01,11.09,317.13,-1.22,-2.81,20.05,513,375,522,514,1460.00,0,BT,-3.449,-3.464,-3.446,-3.449
2021-06-16T17:30:56.43,73,43.638,31.343,45.821,45.523,41.454,19.192,12853,19.547,41.454,2,0.199,-0.406,0.452,153.9,71,0.038,-0.116,-0.957,1.027,46.33045622,-79.40334417,333.86,315.45,11.21,320.39,-1.09,-2.71,20.05,220,315,221,225,1460.00,0,BT,-3.470,-3.397,-3.471,-3.467
2021-06-16T17:30:57.43,74,43.538,31.541,45.226,45.226,41.256,19.036,12857,19.345,41.256,2,0.150,-0.385,0.413,158.8,71,-0.005,-0.169,-0.855,1.111,46.33046643,-79.40335671,336.99,320.22,11.38,322.83,-1.12,-2.73,20.05,436,324,511,500,1460.00,0,BT,-3.491,-3.460,-3.477,-3.480
2021-06-16T17:30:58.43,75,43.042,31.046,44.233,44.829,40.662,18.802,12684,19.091,40.662,2,0.158,-0.405,0.435,158.6,69,0.031,-0.136,-0.828,1.185,46.33047712,-79.40336900,339.69,323.77,11.52,325.67,-1.26,-2.66,20.06,228,401,223,221,1460.00,0,BT,-3.488,-3.430,-3.489,-3.487
2021-06-16T17:30:59.43,76,42.744,29.160,44.630,44.134,40.041,18.620,12904,18.852,40.041,2,0.132,-0.459,0.478,164.0,68,0.003,-0.197,-0.696,1.266,46.33048844,-79.40337965,341.91,328.92,11.72,327.32,-1.36,-2.59,20.07,201,444,199,207,1460.00,0,BT,-3.455,-3.456,-3.456,-3.455
2021-06-16T17:31:00.43,77,42.149,28.465,44.332,43.836,39.579,18.407,12875,18.560,39.579,2,0.070,-0.493,0.498,172.0,68,-0.031,-0.190,-0.609,1.331,46.33049974,-79.40338782,343.34,333.86,11.91,328.21,-1.17,-2.46,20.07,395,396,458,449,1460.00,0,BT,-3.463,-3.469,-3.451,-3.453
2021-06-16T17:31:01.43,78,42.546,28.366,44.233,43.638,39.591,18.186,13375,18.422,39.591,2,0.045,-0.500,0.502,174.9,68,-0.023,-0.182,-0.517,1.353,46.33051095,-79.40339462,343.91,338.29,12.09,328.94,-1.02,-2.27,20.08,243,380,238,430,1460.00,0,BT,-3.485,-3.465,-3.485,-3.450
2021-06-16T17:31:02.43,79,41.653,28.068,43.737,43.042,39.028,17.979,13327,18.204,39.028,2,0.051,-0.470,0.473,173.8,67,-0.010,-0.140,-0.452,1.403,46.33052305,-79.40340016,343.80,342.02,12.23,328.71,-0.89,-2.20,20.09,234,415,234,228,1460.00,0,BT,-3.463,-3.447,-3.463,-3.463
2021-06-16T17:31:03.43,80,40.362,27.274,43.241,42.149,38.184,17.731,13163,17.944,38.184,2,0.062,-0.441,0.445,172.0,65,-0.008,-0.116,-0.403,1.441,46.33053424,-79.40340485,343.15,344.24,12.35,328.16,-0.58,-1.81,20.09,229,461,243,240,1460.00,0,BT,-3.483,-3.474,-3.490,-3.487
2021-06-16T17:31:04.43,81,40.759,28.564,42.744,42.149,38.488,17.467,13538,17.738,38.488,2,0.047,-0.429,0.432,173.8,66,-0.027,-0.120,-0.395,1.473,46.33054688,-79.40340909,342.29,346.22,12.47,327.66,-0.51,-1.76,20.09,284,332,231,367,1460.00,0,BT,-3.485,-3.475,-3.483,-3.474
2021-06-16T17:31:05.43,82,40.264,26.877,42.447,41.256,37.652,17.271,13194,17.444,37.652,2,0.073,-0.321,0.329,167.2,64,0.003,-0.010,-0.423,1.497,46.33055931,-79.40341360,341.50,344.92,12.48,327.41,-0.28,-1.57,20.10,255,445,367,322,1460.00,0,BT,-3.520,-3.433,-3.510,-3.516
2021-06-16T17:31:06.43,83,39.867,27.373,41.752,40.561,37.347,17.064,13173,17.214,37.347,2,0.076,-0.350,0.358,167.7,64,-0.042,-0.046,-0.419,1.545,46.33057122,-79.40341747,341.02,345.87,12.55,327.34,0.15,-1.20,20.10,213,399,242,206,1460.00,0,BT,-3.465,-3.446,-3.459,-3.463
2021-06-16T17:31:07.43,84,39.172,25.785,41.950,40.462,36.796,16.799,13293,16.916,36.796,2,0.069,-0.399,0.405,170.2,63,-0.066,-0.054,-0.527,1.560,46.33058493,-79.40342290,341.49,343.69,12.63,328.30,0.34,-1.20,20.11,241,380,361,243,1460.00,0,BT,-3.507,-3.504,-3.497,-3.507
2021-06-16T17:31:08.43,85,39.370,24.893,41.553,40.164,36.440,16.524,13689,16.682,36.440,2,0.091,-0.383,0.394,166.6,62,-0.011,-0.024,-0.652,1.582,46.33059995,-79.40343220,343.67,339.11,12.66,330.85,-0.03,-1.41,20.11,237,380,236,238,1460.00,0,BT,-3.536,-3.476,-3.536,-3.535
2021-06-16T17:31:09.43,86,39.271,24.297,41.256,39.867,36.101,16.250,13673,16.417,36.101,2,0.130,-0.415,0.434,162.6,61,-0.005,-0.059,-0.658,1.640,46.33061609,-79.40344256,347.52,337.81,12.72,333.53,-0.47,-1.76,20.10,215,393,272,223,1460.00,0,BT,-3.523,-3.468,-3.520,-3.524
2021-06-16T17:31:10.43,87,41.058,22.213,40.661,39.668,35.799,15.924,12741,16.085,35.799,2,0.107,-0.503,0.514,168.0,61,-0.041,-0.145,-0.624,1.667,46.33063257,-79.40345279,352.65,338.06,12.87,337.83,-0.82,-2.07,20.11,249,455,264,204,1460.00,0,BT,-3.494,-3.500,-3.494,-3.500
2021-06-16T17:31:11.43,88,37.385,22.312,39.668,39.172,34.514,15.650,13291,15.811,34.514,2,0.067,-0.588,0.592,173.5,58,-0.054,-0.202,-0.564,1.733,46.33065008,-79.40346250,358.73,339.26,13.08,342.47,-1.29,-2.49,20.11,223,584,232,227,1460.00,0,BT,-3.520,-3.534,-3.531,-3.521
2021-06-16T17:31:12.43,89,36.988,21.122,38.676,38.676,33.726,15.269,13141,15.495,33.726,2,0.034,-0.615,0.616,176.8,57,-0.038,-0.162,-0.405,1.755,46.33066757,-79.40347049,5.53,342.94,13.24,348.09,-1.50,-2.68,20.12,245,531,236,234,1460.00,0,BT,-3.537,-3.495,-3.537,-3.536
2021-06-16T17:31:13.43,90,37.782,14.969,39.767,38.477,32.572,15.016,13367,15.113,32.572,2,3.757,1.874,4.199,63.5,55,3.734,2.296,-0.246,1.714,46.33068429,-79.40347575,12.38,347.59,17.63,353.17,-1.46,-2.79,20.12,229,192,236,234,1460.00,0,BT,-3.503,0.321,-3.504,-3.504
2021-06-16T17:31:14.43,91,35.599,14.472,38.676,37.882,31.484,14.752,12970,14.862,31.484,2,3.838,1.652,4.178,66.7,53,3.985,1.841,-0.106,1.703,46.33070136,-79.40347916,19.16,352.92,22.02,358.63,-1.52,-2.80,20.10,236,172,233,236,1460.00,0,BT,-3.522,0.308,-3.522,-3.523
2021-06-16T17:31:15.43,92,35.202,13.975,37.485,36.493,30.611,14.457,12905,14.563,30.611,2,3.996,1.143,4.156,74.0,51,4.128,1.354,0.080,1.642,46.33071788,-79.40347933,25.81,359.38,26.36,2.96,-1.51,-2.93,20.09,232,67,231,231,1460.00,0,BT,-3.506,0.294,-3.504,-3.505
2021-06-16T17:31:16.43,93,36.293,13.678,38.378,36.988,31.142,14.187,13077,14.355,31.142,2,4.065,0.721,4.129,79.9,52,4.220,0.868,0.213,1.586,46.33073382,-79.40347751,32.27,4.56,30.67,7.69,-1.57,-3.03,20.09,386,114,385,366,1460.00,0,BT,-3.485,0.284,-3.485,-3.487
2021-06-16T17:31:17.43,94,34.210,13.480,36.691,36.591,30.050,13.976,12922,14.141,30.050,2,4.137,0.248,4.145,86.6,50,4.360,0.399,0.387,1.513,46.33074987,-79.40347344,38.52,10.80,35.05,12.10,-1.80,-3.06,20.09,228,67,228,232,1460.00,0,BT,-3.525,0.310,-3.525,-3.523
2021-06-16T17:31:18.43,95,35.400,13.083,36.889,36.293,30.232,13.733,12591,13.839,30.232,2,4.142,-0.135,4.144,91.9,51,4.338,0.012,0.517,1.392,46.33076349,-79.40346777,43.93,16.89,39.39,15.28,-1.52,-2.93,20.10,249,67,259,254,1460.00,0,BT,-3.503,0.290,-3.492,-3.502
2021-06-16T17:31:19.43,96,34.706,12.784,37.485,36.194,30.135,13.461,13140,13.577,30.135,2,4.119,-0.495,4.149,96.9,51,4.370,-0.339,0.671,1.306,46.33077611,-79.40346041,48.63,24.45,43.77,18.78,-1.21,-2.63,20.10,235,88,238,237,1460.00,0,BT,-3.514,0.306,-3.512,-3.512
2021-06-16T17:31:20.43,97,34.011,12.587,35.699,35.599,29.304,13.250,13181,13.429,29.304,2,4.053,-0.998,4.174,103.8,49,4.318,-0.675,0.765,1.242,46.33078882,-79.40344996,52.94,29.74,48.14,21.47,-1.33,-2.81,20.10,243,96,240,237,1460.00,0,BT,-3.496,0.318,-3.498,-3.497
2021-06-16T17:31:21.43,98,33.316,12.289,34.706,34.606,28.584,13.031,13455,13.214,28.584,2,4.011,-1.113,4.162,105.5,48,4.299,-0.964,0.884,1.148,46.33079954,-79.40343946,56.88,35.98,52.54,24.22,-0.93,-2.55,20.10,221,162,267,266,1460.00,0,BT,-3.503,0.320,-3.512,-3.512
2021-06-16T17:31:22.43,99,32.622,12.090,34.805,34.706,28.411,12.830,12790,13.069,28.411,2,3.942,-1.389,4.180,109.4,47,4.265,-1.249,0.967,1.084,46.33081037,-79.40342659,60.65,41.12,56.99,26.63,-0.99,-2.54,20.09,238,101,236,240,1460.00,0,BT,-3.529,0.337,-3.529,-3.528
2021-06-16T17:31:23.43,100,33.019,11.892,34.508,34.210,28.267,12.710,12786,12.875,28.267,2,3.846,-1.635,4.179,113.0,47,4.153,-1.520,1.076,1.005,46.33082024,-79.40341281,64.44,45.81,61.41,29.46,-0.96,-2.47,20.09,231,96,235,232,1460.00,0,BT,-3.514,0.329,-3.515,-3.515
2021-06-16T17:31:24.43,101,33.019,11.594,34.308,34.111,28.121,12.511,13209,12.718,28.121,2,3.730,-1.887,4.180,116.8,47,4.088,-1.819,1.164,0.941,46.33082968,-79.40339784,68.35,49.12,65.88,32.24,-0.85,-2.42,20.10,228,78,243,238,1460.00,0,BT,-3.540,0.332,-3.544,-3.554
2021-06-16T17:31:25.43,102,32.622,11.395,33.813,33.813,27.779,12.377,13025,12.594,27.779,2,3.602,-2.136,4.188,120.7,46,3.947,-2.080,1.241,0.849,46.33083822,-79.40338170,72.31,54.03,70.35,35.22,-0.69,-2.36,20.09,240,93,239,239,1460.00,0,BT,-3.523,0.348,-3.524,-3.524
2021-06-16T17:31:26.43,103,32.423,11.296,33.316,33.912,27.619,12.242,13086,12.465,27.619,2,3.431,-2.381,4.176,124.8,46,3.761,-2.344,1.300,0.796,46.33084649,-79.40336500,76.51,57.38,74.78,38.63,-0.60,-2.13,20.09,243,65,246,245,1460.00,0,BT,-3.499,0.336,-3.500,-3.500
2021-06-16T17:31:27.43,104,31.134,11.098,33.019,33.614,27.101,12.153,13227,12.408,27.101,2,3.204,-2.650,4.158,129.6,45,3.553,-2.658,1.410,0.716,46.33085424,-79.40334597,81.35,61.64,79.21,42.45,-0.67,-2.12,20.09,212,100,215,209,1460.00,0,BT,-3.528,0.315,-3.528,-3.526
2021-06-16T17:31:28.43,105,32.523,10.899,33.019,33.217,27.298,12.042,13413,12.377,27.298,2,2.827,-3.088,4.187,137.5,45,3.292,-3.003,1.460,0.644,46.33086124,-79.40332617,86.84,64.81,83.67,47.21,-0.70,-2.13,20.10,306,70,310,315,1460.00,0,BT,-3.530,0.320,-3.535,-3.538
2021-06-16T17:31:29.43,106,32.026,10.899,32.820,33.019,27.047,12.057,12959,12.334,27.047,2,2.627,-3.214,4.151,140.7,45,2.894,-3.297,1.519,0.530,46.33086754,-79.40330329,92.96,68.42,88.06,51.77,-1.14,-2.54,20.10,258,77,255,255,1460.00,0,BT,-3.510,0.308,-3.509,-3.509
2021-06-16T17:31:30.43,107,32.225,10.998,32.523,33.515,27.173,12.051,13050,12.333,27.173,2,2.234,-3.480,4.135,147.3,45,2.521,-3.614,1.544,0.361,46.33087225,-79.40328178,99.38,74.06,92.46,56.72,-1.05,-2.46,20.11,218,96,221,217,1460.00,0,BT,-3.528,0.299,-3.528,-3.531
2021-06-16T17:31:31.43,108,32.721,10.998,33.019,33.714,27.452,12.102,12712,12.295,27.452,2,1.834,-3.711,4.139,153.7,46,2.063,-3.850,1.562,0.244,46.33087542,-79.40325899,106.01,78.52,96.83,62.02,-1.19,-2.70,20.11,264,103,260,259,1460.00,0,BT,-3.515,0.295,-3.514,-3.513
2021-06-16T17:31:32.43,109,32.920,10.998,32.721,33.813,27.442,12.069,13027,12.292,27.442,2,1.381,-3.902,4.140,160.5,46,1.600,-4.119,1.566,0.048,46.33087693,-79.40323628,112.99,84.48,101.25,67.29,-1.12,-2.84,20.11,254,164,250,252,1460.00,0,BT,-3.575,0.284,-3.575,-3.576
2021-06-16T17:31:33.43,110,32.721,10.998,32.225,33.813,27.259,12.052,13308,12.380,27.259,2,0.886,-4.053,4.149,167.7,45,1.066,-4.253,1.581,-0.128,46.33087673,-79.40321280,120.06,91.69,105.63,72.93,-1.35,-2.92,20.08,260,66,256,254,1460.00,0,BT,-3.564,0.273,-3.559,-3.561
2021-06-16T17:31:34.43,111,32.026,10.899,32.423,33.813,27.094,12.025,14092,12.420,27.094,2,0.371,-4.071,4.088,174.8,45,0.501,-4.251,1.480,-0.273,46.33087458,-79.40319031,127.24,97.14,109.92,79.76,-1.43,-3.16,20.05,231,33,230,221,1460.00,0,BT,-3.487,0.265,-3.488,-3.489
2021-06-16T17:31:35.43,112,33.416,10.899,33.714,34.308,27.897,12.120,13029,12.541,27.897,2,-0.381,-4.050,4.068,185.4,47,-0.024,-4.300,1.434,-0.469,46.33087119,-79.40316922,134.31,104.81,114.22,86.20,-1.43,-2.98,20.00,248,48,253,250,1460.00,0,BT,-3.496,0.266,-3.496,-3.496
2021-06-16T17:31:36.43,113,33.714,10.998,33.813,34.805,28.134,12.253,13092,12.704,28.134,2,-0.658,-4.043,4.097,189.2,47,-0.566,-4.302,1.370,-0.619,46.33086548,-79.40314859,141.49,111.54,118.55,92.49,-1.43,-3.08,19.95,223,55,218,220,1460.00,0,BT,-3.528,0.273,-3.528,-3.528
2021-06-16T17:31:37.43,114,34.508,11.296,34.508,35.301,28.702,12.441,13370,12.851,28.702,2,-1.156,-3.945,4.110,196.3,48,-1.088,-4.153,1.255,-0.774,46.33085850,-79.40312962,148.74,117.80,122.85,99.19,-1.28,-3.10,19.90,249,71,248,252,1460.00,0,BT,-3.513,0.250,-3.514,-3.513
2021-06-16T17:31:38.43,115,34.805,8.220,34.905,35.400,28.109,12.684,13389,13.071,28.109,2,-1.633,-3.754,4.094,203.5,47,-1.612,-3.992,1.160,-0.900,46.33084998,-79.40311157,155.99,124.37,127.15,106.58,-1.40,-3.13,19.86,217,83,217,214,1460.00,0,BT,-3.522,0.253,-3.521,-3.523
2021-06-16T17:31:39.43,116,34.905,10.502,34.606,35.301,28.622,12.949,13067,13.363,28.622,2,-2.097,-3.537,4.112,210.7,48,-2.109,-3.754,1.049,-1.004,46.33084031,-79.40309551,163.37,131.11,131.46,114.34,-1.34,-3.09,19.83,228,63,224,221,1460.00,0,BT,-3.528,0.246,-3.527,-3.529
2021-06-16T17:31:40.43,117,35.699,12.190,35.103,36.096,29.563,13.235,12788,13.568,29.563,2,-2.531,-3.224,4.099,218.1,50,-2.549,-3.418,0.891,-1.132,46.33082918,-79.40308146,170.71,138.33,135.72,121.94,-1.39,-3.15,19.80,243,76,243,239,1460.00,0,BT,-3.500,0.240,-3.500,-3.500
2021-06-16T17:31:41.43,118,35.897,12.387,35.202,36.493,29.783,13.519,13295,13.735,29.783,2,-2.887,-2.869,4.070,225.2,50,-2.956,-3.064,0.763,-1.224,46.33081722,-79.40306961,178.05,144.73,139.98,130.64,-1.28,-3.18,19.78,239,46,234,238,1460.00,0,BT,-3.497,0.239,-3.497,-3.497
2021-06-16T17:31:42.43,119,36.691,12.686,35.599,36.790,30.226,13.866,13443,14.011,30.226,2,-3.420,-2.297,4.120,236.1,51,-3.344,-2.685,0.567,-1.314,46.33080400,-79.40306013,185.29,153.25,144.27,139.13,-1.35,-3.20,19.78,237,28,242,233,1460.00,0,BT,-3.525,0.240,-3.524,-3.524
2021-06-16T17:31:43.43,120,36.988,13.083,36.096,37.385,30.667,14.189,13623,14.244,30.667,2,-3.549,-2.077,4.112,239.7,52,-3.641,-2.239,0.424,-1.378,46.33079007,-79.40305288,192.40,159.64,148.54,148.67,-1.45,-3.23,19.78,225,64,219,223,1460.00,0,BT,-3.499,0.255,-3.497,-3.498
2021-06-16T17:31:44.43,121,37.981,13.480,36.591,37.584,31.205,14.442,13377,14.459,31.205,2,-3.763,-1.627,4.099,246.6,52,-3.858,-1.783,0.239,-1.375,46.33077685,-79.40304813,199.41,166.56,152.79,157.70,-1.16,-3.05,19.81,222,63,224,220,1460.00,0,BT,-3.498,0.228,-3.495,-3.497
2021-06-16T17:31:45.43,122,39.073,13.877,37.782,38.477,32.113,14.628,13313,14.684,32.113,2,-3.955,-1.184,4.129,253.3,54,-4.099,-1.332,0.077,-1.414,46.33076311,-79.40304550,206.26,174.28,157.10,167.88,-1.08,-2.83,19.83,224,82,223,228,1460.00,0,BT,-3.527,0.240,-3.524,-3.526
2021-06-16T17:31:46.43,123,39.271,14.273,38.179,38.874,32.459,14.809,13268,14.982,32.459,2,-4.061,-0.703,4.121,260.2,55,-4.184,-0.812,-0.050,-1.433,46.33074880,-79.40304538,213.29,179.36,161.36,176.36,-1.03,-2.85,19.86,257,39,258,260,1460.00,0,BT,-3.486,0.240,-3.485,-3.485
2021-06-16T17:31:47.43,124,39.965,11.990,37.286,38.676,31.766,14.959,13417,15.351,31.766,2,-4.105,-0.171,4.109,267.6,53,-4.280,-0.298,-0.259,-1.413,46.33073442,-79.40304832,220.29,187.22,165.66,186.35,-1.01,-2.95,19.88,205,116,207,211,1460.00,0,BT,-3.508,0.248,-3.508,-3.507
2021-06-16T17:31:48.43,125,NaN,NaN,NaN,NaN,0.000,15.054,13768,15.616,31.766,1,-2.227,-0.470,2.276,258.1,53,NaN,NaN,-0.487,-1.392,46.33072094,-79.40305565,226.78,195.29,0.00,196.79,-0.88,-3.53,19.91,0,0,0,0,1460.00,1,BT,NaN,NaN,NaN,NaN
2021-06-16T17:31:49.43,126,NaN,NaN,NaN,NaN,0.000,15.185,13556,15.773,31.766,1,-0.362,-1.038,1.099,199.2,53,NaN,NaN,-0.729,-1.342,46.33070682,-79.40306445,232.25,204.24,0.00,202.10,-1.27,-3.57,19.94,0,0,0,0,1460.00,1,BT,NaN,NaN,NaN,NaN
2021-06-16T17:31:50.43,127,NaN,NaN,NaN,NaN,0.000,15.399,13192,15.976,31.766,1,-0.650,-0.885,1.099,216.3,53,NaN,NaN,-0.961,-1.181,46.33069516,-79.40307511,236.00,214.41,0.00,206.16,-1.15,-3.29,19.96,0,0,0,0,1460.00,1,BT,NaN,NaN,NaN,NaN
2021-06-16T17:31:51.43,128,NaN,NaN,NaN,NaN,0.000,15.676,13495,16.186,31.766,1,-0.744,-0.819,1.107,222.3,53,NaN,NaN,-1.188,-1.046,46.33068555,-79.40308682,237.86,224.74,0.00,206.83,-0.69,-2.53,19.98,0,0,0,0,1460.00,1,BT,NaN,NaN,NaN,NaN
2021-06-16T17:31:52.43,129,NaN,NaN,NaN,NaN,0.000,15.938,13595,16.471,31.766,1,-0.886,-0.763,1.169,229.3,53,NaN,NaN,-1.314,-1.038,46.33067690,-79.40310154,238.50,230.53,0.00,207.14,-0.25,-2.10,20.00,0,0,0,0,1460.00,1,BT,NaN,NaN,NaN,NaN
2021-06-16T17:31:53.43,130,NaN,NaN,NaN,NaN,0.000,16.114,13088,16.695,31.766,1,-0.969,-0.789,1.249,230.8,53,NaN,NaN,-1.404,-1.054,46.33066803,-79.40311814,238.79,233.09,0.00,206.49,-0.06,-1.85,20.01,0,0,0,0,1460.00,1,BT,NaN,NaN,NaN,NaN
2021-06-16T17:31:54.43,131,41.653,41.852,39.271,39.867,40.648,16.401,13119,16.849,40.648,2,-0.305,-0.299,0.427,225.6,69,0.107,-0.011,-1.493,-1.104,46.33065849,-79.40313705,239.21,234.16,0.00,207.64,-0.03,-1.79,20.03,317,314,222,222,1460.00,0,BT,-3.500,-3.501,-3.511,-3.513
2021-06-16T17:31:55.43,132,42.347,42.744,39.867,41.852,41.687,16.532,13330,17.049,41.687,2,0.454,0.215,0.502,64.7,71,0.110,-0.018,-1.562,-1.119,46.33064827,-79.40315631,239.98,234.54,0.11,208.53,-0.15,-1.64,20.04,250,248,255,259,1460.00,0,BT,-3.522,-3.521,-3.522,-3.521
2021-06-16T17:31:56.43,133,40.958,41.256,39.569,39.867,40.398,16.641,13190,17.165,40.398,2,0.457,0.198,0.498,66.6,69,0.116,-0.020,-1.647,-1.148,46.33063779,-79.40317787,241.10,235.13,0.23,210.43,-0.22,-1.74,20.05,230,227,231,229,1460.00,0,BT,-3.524,-3.524,-3.522,-3.525
2021-06-16T17:31:57.43,134,43.241,43.241,40.859,42.744,42.498,16.895,12872,17.269,42.498,2,0.485,0.220,0.532,65.6,73,0.129,0.007,-1.724,-1.110,46.33062707,-79.40320049,242.30,236.23,0.36,212.56,-0.42,-1.86,20.06,370,375,255,352,1460.00,0,BT,-3.500,-3.499,-3.514,-3.502
2021-06-16T17:31:58.43,135,42.645,41.653,40.462,40.759,41.362,17.113,12990,17.467,41.362,2,0.502,0.210,0.544,67.3,71,0.120,-0.006,-1.804,-1.090,46.33061738,-79.40322274,243.31,238.27,0.48,213.46,-0.30,-1.74,20.05,364,294,258,276,1460.00,0,BT,-3.486,-3.493,-3.496,-3.494
2021-06-16T17:31:59.43,136,42.943,41.852,40.362,40.958,41.510,17.250,12993,17.634,41.510,2,0.499,0.208,0.541,67.4,71,0.113,-0.001,-1.843,-1.076,46.33060755,-79.40324657,244.12,239.83,0.59,214.23,-0.35,-1.73,20.04,384,324,306,261,1460.00,0,BT,-3.516,-3.523,-3.526,-3.532
2021-06-16T17:32:00.43,137,43.538,42.645,41.852,41.256,42.309,17.386,13576,17.776,42.309,2,0.497,0.184,0.530,69.7,72,0.108,-0.001,-1.908,-1.049,46.33059753,-79.40327041,244.73,241.19,0.70,213.39,-0.52,-1.51,20.02,231,225,227,226,1460.00,0,BT,-3.499,-3.499,-3.499,-3.499
2021-06-16T17:32:01.43,138,41.553,38.973,40.065,41.058,40.389,17.618,13396,18.010,40.389,2,0.522,0.195,0.557,69.5,69,0.123,0.013,-1.942,-1.006,46.33058817,-79.40329507,245.13,242.15,0.82,214.03,-0.62,-1.47,20.00,351,233,236,350,1460.00,0,BT,-3.504,-3.515,-3.515,-3.505
2021-06-16T17:32:02.43,139,44.432,43.836,43.538,42.050,43.455,17.703,12695,18.088,43.455,2,0.492,0.192,0.528,68.6,75,0.087,0.005,-1.992,-1.015,46.33057976,-79.40331982,245.51,242.99,0.91,215.18,-0.33,-1.37,19.97,452,415,405,336,1460.00,0,BT,-3.481,-3.490,-3.493,-3.501
2021-06-16T17:32:03.43,140,44.829,43.141,43.241,43.836,43.741,17.887,13096,18.274,43.741,2,0.478,0.186,0.512,68.7,75,0.112,-0.027,-2.001,-1.043,46.33057128,-79.40334628,246.16,242.84,1.03,218.34,-0.15,-1.64,19.93,446,385,425,406,1460.00,0,BT,-3.524,-3.533,-3.528,-3.531
2021-06-16T17:32:04.43,141,55.161,45.623,40.859,41.950,45.878,17.964,13444,18.474,45.878,2,0.439,0.165,0.469,69.4,79,0.107,-0.016,-2.049,-1.013,46.33056120,-79.40337285,247.23,243.09,1.13,218.99,-0.42,-1.63,19.90,240,244,230,237,1460.00,0,BT,-3.562,-3.553,-3.559,-3.558
2021-06-16T17:32:05.43,142,61.711,43.935,41.950,44.531,47.980,18.082,13478,18.625,47.980,2,0.432,0.137,0.453,72.4,83,0.069,-0.031,-2.056,-1.023,46.33055163,-79.40340018,248.56,243.37,1.21,220.87,-0.57,-1.80,19.88,502,572,583,479,1460.00,0,BT,-3.511,-3.485,-3.478,-3.523
2021-06-16T17:32:06.43,143,61.909,43.935,41.752,41.950,47.351,18.183,13270,18.678,47.351,2,0.470,0.152,0.494,72.0,82,0.128,0.030,-2.105,-0.936,46.33054314,-79.40342722,249.99,245.51,1.34,223.83,-0.45,-1.79,19.91,539,460,338,377,1460.00,0,BT,-3.494,-3.515,-3.537,-3.531
2021-06-16T17:32:07.43,144,61.314,42.645,42.546,45.027,47.813,18.230,13060,18.882,47.813,2,0.524,0.167,0.550,72.3,82,0.161,0.007,-2.150,-0.903,46.33053359,-79.40345595,251.43,246.64,1.50,224.74,-0.84,-1.80,19.97,483,393,382,488,1460.00,0,BT,-3.512,-3.528,-3.530,-3.511
2021-06-16T17:32:08.43,145,19.632,46.714,43.737,45.324,38.883,18.377,13519,18.953,38.883,2,1.394,1.677,2.181,39.7,66,1.657,2.963,-2.165,-0.853,46.33052500,-79.40348435,252.66,247.87,4.90,225.46,-1.07,-1.80,20.02,103,576,509,558,1460.00,0,BT,-0.691,-3.490,-3.511,-3.493
2021-06-16T17:32:09.43,146,19.732,43.935,43.340,45.721,38.192,18.404,13288,19.080,38.192,2,2.147,3.106,3.776,34.6,65,1.671,2.916,-2.191,-0.741,46.33051832,-79.40351173,253.27,249.58,8.26,225.89,-0.78,-1.74,20.06,123,216,213,214,1460.00,0,BT,-0.707,-3.512,-3.511,-3.516
2021-06-16T17:32:10.43,147,19.534,45.226,42.744,43.241,37.712,18.820,13526,19.143,37.712,2,2.141,3.080,3.751,34.8,64,1.662,2.949,-2.202,-0.654,46.33051183,-79.40353873,253.11,252.62,11.64,224.91,-0.73,-1.37,20.08,223,248,249,250,1460.00,0,BT,-0.675,-3.506,-3.502,-3.504
2021-06-16T17:32:11.43,148,19.534,46.218,43.340,44.928,38.501,18.957,12909,19.148,38.501,2,2.039,3.060,3.677,33.7,66,1.593,2.937,-2.201,-0.677,46.33050776,-79.40356604,252.45,253.27,14.98,225.53,-0.09,-1.41,20.11,80,530,428,480,1460.00,0,BT,-0.640,-3.437,-3.459,-3.450
2021-06-16T17:32:12.43,149,19.732,45.424,43.737,45.523,38.617,18.868,13423,19.227,38.617,2,2.018,3.057,3.663,33.4,66,1.520,2.922,-2.177,-0.670,46.33050059,-79.40359348,251.51,252.88,18.28,222.25,-0.43,-1.08,20.12,221,239,427,247,1460.00,0,BT,-0.677,-3.457,-3.442,-3.459
2021-06-16T17:32:13.43,150,19.335,46.417,43.439,45.920,38.782,18.588,14249,19.178,38.782,2,1.966,3.099,3.670,32.4,66,1.476,2.979,-2.173,-0.655,46.33049568,-79.40362050,250.41,253.56,21.60,221.68,-0.19,-1.02,20.14,108,215,218,221,1460.00,0,BT,-0.673,-3.473,-3.474,-3.472
2021-06-16T17:32:14.43,151,19.236,46.515,46.020,44.531,39.077,18.771,13166,18.919,39.077,2,1.896,3.121,3.651,31.3,67,1.385,2.956,-2.177,-0.746,46.33049011,-79.40364868,249.44,252.68,24.87,220.57,-0.07,-1.04,20.16,265,472,469,412,1460.00,0,BT,-0.661,-3.415,-3.416,-3.428
2021-06-16T17:32:15.43,152,19.137,46.417,43.141,45.324,38.513,18.696,12598,18.974,38.513,2,1.845,3.134,3.636,30.5,66,1.391,3.012,-2.169,-0.753,46.33048330,-79.40367740,248.78,251.38,28.18,219.11,-0.29,-1.17,20.16,232,483,401,466,1460.00,0,BT,-0.673,-3.449,-3.464,-3.452
2021-06-16T17:32:16.43,153,19.037,45.920,42.447,42.943,37.589,18.176,13780,18.912,37.589,2,1.838,3.188,3.680,30.0,64,1.366,3.064,-2.175,-0.770,46.33047710,-79.40370512,248.35,250.62,31.54,219.16,-0.07,-1.19,20.18,181,538,425,444,1460.00,0,BT,-0.672,-3.482,-3.504,-3.503
2021-06-16T17:32:17.43,154,18.640,45.920,43.638,43.439,37.921,17.855,13423,18.712,37.921,2,1.817,3.191,3.672,29.7,65,1.344,3.021,-2.181,-0.798,46.33046946,-79.40373380,248.11,249.96,34.84,218.78,-0.30,-1.24,20.19,203,442,367,363,1460.00,0,BT,-0.688,-3.454,-3.468,-3.468
2021-06-16T17:32:18.43,155,18.640,45.424,44.531,44.134,38.175,17.804,13137,18.435,38.175,2,1.809,3.182,3.660,29.6,65,1.354,2.997,-2.164,-0.801,46.33046323,-79.40376171,248.04,249.68,38.13,219.47,0.00,-1.37,20.20,156,223,236,223,1460.00,0,BT,-0.683,-3.461,-3.462,-3.462
2021-06-16T17:32:19.43,156,18.640,53.672,40.958,41.752,38.785,17.465,13066,18.377,38.785,2,1.746,3.148,3.600,29.0,66,1.331,2.999,-2.164,-0.815,46.33045515,-79.40378937,247.96,249.26,41.42,218.61,-0.21,-1.20,20.21,131,239,242,284,1460.00,0,BT,-0.681,-3.434,-3.445,-3.441
2021-06-16T17:32:20.43,157,18.243,59.428,42.248,41.653,40.481,17.781,13095,18.297,40.481,2,1.771,3.179,3.639,29.1,69,1.384,3.050,-2.157,-0.810,46.33044655,-79.40382069,247.80,249.65,44.76,217.57,-1.02,-1.76,20.21,189,291,318,298,1460.00,0,BT,-0.677,-3.465,-3.461,-3.465
2021-06-16T17:32:21.43,158,18.243,58.336,41.058,41.156,39.739,17.758,13530,18.181,39.739,2,1.778,3.207,3.667,29.0,68,1.352,3.067,-2.153,-0.823,46.33044081,-79.40384518,247.50,249.60,48.12,217.79,-0.19,-1.13,20.21,257,228,238,254,1460.00,0,BT,-0.674,-3.510,-3.498,-3.497
2021-06-16T17:32:22.43,159,18.045,60.619,42.347,41.256,40.612,17.759,12999,17.901,40.612,2,1.763,3.205,3.658,28.8,69,1.318,3.069,-2.168,-0.813,46.33043361,-79.40387326,247.13,249.18,51.46,217.13,-0.16,-1.16,20.22,218,211,206,205,1460.00,0,BT,-0.668,-3.486,-3.483,-3.484
2021-06-16T17:32:23.43,160,15.663,60.221,40.164,40.859,39.262,17.162,12959,17.817,39.262,2,1.741,3.275,3.710,28.0,67,1.281,3.143,-2.174,-0.839,46.33042560,-79.40389947,246.72,248.63,54.85,214.83,-0.20,-0.74,20.23,189,383,249,280,1460.00,0,BT,-0.674,-3.520,-3.534,-3.531
2021-06-16T17:32:24.43,161,17.648,56.352,40.065,40.362,38.640,17.012,14468,17.722,38.640,2,1.713,3.292,3.711,27.5,66,1.287,3.085,-2.174,-0.863,46.33041885,-79.40392896,246.24,248.25,58.19,216.42,-0.04,-1.23,20.22,183,230,219,370,1460.00,0,BT,-0.684,-3.506,-3.506,-3.492
2021-06-16T17:32:25.43,162,17.449,53.374,39.470,39.470,37.480,17.278,13214,17.561,37.480,2,1.717,3.260,3.685,27.8,64,1.232,3.078,-2.169,-0.851,46.33041051,-79.40395709,245.88,248.29,61.51,214.89,-0.32,-1.19,20.22,175,240,255,221,1460.00,0,BT,-0.684,-3.482,-3.471,-3.490
2021-06-16T17:32:26.43,163,15.861,59.726,37.782,40.462,38.479,17.106,13057,17.361,38.479,2,1.627,3.255,3.639,26.6,66,1.196,3.080,-2.130,-0.919,46.33040361,-79.40398319,245.62,247.09,64.81,215.32,0.23,-0.96,20.21,211,366,220,231,1460.00,0,BT,-0.690,-3.479,-3.493,-3.494
2021-06-16T17:32:27.43,164,17.052,67.268,38.179,39.867,40.650,16.881,12920,17.167,40.650,2,1.615,3.271,3.648,26.3,69,1.192,3.126,-2.144,-0.945,46.33039472,-79.40401215,245.44,246.99,68.16,215.23,-0.10,-1.12,20.21,136,402,241,241,1460.00,0,BT,-0.703,-3.494,-3.526,-3.524
2021-06-16T17:32:28.43,165,16.755,59.130,38.279,39.569,38.491,16.662,12766,16.936,38.491,2,1.659,3.301,3.695,26.7,66,1.222,3.127,-2.131,-0.969,46.33038504,-79.40404010,245.49,246.30,71.52,213.37,-0.57,-1.03,20.20,138,296,227,230,1460.00,0,BT,-0.685,-3.494,-3.497,-3.498
2021-06-16T17:32:29.43,166,14.670,59.229,39.073,40.362,38.405,16.501,13129,16.734,38.405,2,1.685,3.309,3.713,27.0,65,1.253,3.098,-2.151,-0.983,46.33037689,-79.40406995,245.67,245.88,74.86,215.83,-0.54,-1.57,20.19,178,276,223,241,1460.00,0,BT,-0.701,-3.492,-3.500,-3.497
2021-06-16T17:32:30.43,167,16.060,58.733,39.965,40.958,38.979,16.311,13055,16.538,38.979,2,1.726,3.308,3.731,27.6,66,1.279,3.125,-2.155,-0.956,46.33036864,-79.40409647,245.94,246.00,78.23,216.36,-0.28,-1.31,20.17,55,215,218,297,1460.00,0,BT,-0.651,-3.500,-3.491,-3.493
2021-06-16T17:32:31.43,168,14.372,58.336,38.279,39.569,37.695,16.008,13063,16.306,37.695,2,1.777,3.332,3.777,28.1,64,1.282,3.081,-2.119,-0.950,46.33035979,-79.40412424,246.29,245.79,81.57,215.89,-0.33,-1.31,20.16,142,226,230,230,1460.00,0,BT,-0.702,-3.510,-3.507,-3.506
2021-06-16T17:32:32.43,169,NaN,NaN,NaN,NaN,0.000,15.360,13224,16.121,37.695,1,0.050,1.264,1.265,2.3,64,NaN,NaN,-2.139,-0.958,46.33035078,-79.40415299,246.71,245.73,0.00,217.65,-0.50,-1.54,20.15,0,0,0,0,1460.00,1,BT,NaN,NaN,NaN,NaN
2021-06-16T17:32:33.43,170,47.211,58.833,44.134,41.455,47.934,15.263,13930,15.918,47.934,2,0.497,0.163,0.523,71.8,83,0.156,0.005,-2.128,-0.955,46.33034181,-79.40417966,247.04,246.32,0.00,216.99,-0.59,-1.20,20.13,521,227,430,544,1460.00,0,BT,-3.453,-3.494,-3.473,-3.441
2021-06-16T17:32:34.43,171,44.233,15.961,39.767,42.844,35.631,14.627,12764,15.776,35.631,2,-1.620,1.140,1.981,305.1,60,-4.407,1.864,-2.163,-0.928,46.33033395,-79.40420704,247.36,247.23,4.79,216.63,-0.36,-1.09,20.12,479,60,237,430,1460.00,0,BT,-3.460,0.621,-3.485,-3.467
2021-06-16T17:32:35.43,172,40.859,16.457,38.279,13.877,27.365,14.474,13208,15.667,27.365,2,-2.317,1.526,2.775,303.4,46,-1.426,0.615,-2.147,-0.926,46.33032543,-79.40423534,247.78,246.79,6.34,217.84,-0.45,-1.17,20.10,295,183,242,61,1460.00,0,BT,-3.511,0.673,-3.510,-0.673
2021-06-16T17:32:36.43,173,39.172,16.258,36.096,13.877,26.349,15.012,13016,15.535,26.349,2,-0.769,0.922,1.200,320.2,44,-1.440,0.628,-2.170,-0.922,46.33031746,-79.40426353,248.46,247.11,7.91,219.84,-0.22,-1.14,20.08,256,163,255,110,1460.00,0,BT,-3.505,0.662,-3.501,-0.698
2021-06-16T17:32:37.43,174,40.958,16.159,38.676,13.877,27.418,15.044,12955,15.416,27.418,2,-0.763,0.941,1.211,321.0,46,-1.407,0.650,-2.209,-0.910,46.33030896,-79.40429142,249.42,247.63,9.46,220.72,-0.14,-0.87,20.07,293,241,236,142,1460.00,0,BT,-3.503,0.651,-3.507,-0.683
2021-06-16T17:32:38.43,175,40.065,15.961,37.584,13.777,26.845,14.918,12907,15.268,26.845,2,-0.700,0.980,1.204,324.4,45,-1.335,0.658,-2.212,-0.928,46.33030090,-79.40432129,251.07,247.24,10.95,225.51,-0.06,-1.30,20.05,231,162,233,138,1460.00,0,BT,-3.477,0.607,-3.479,-0.689
2021-06-16T17:32:39.43,176,41.553,15.961,39.271,13.579,27.580,14.871,13081,15.134,27.580,2,-0.627,0.985,1.168,327.5,46,-1.217,0.700,-2.190,-0.984,46.33029034,-79.40435291,253.69,245.74,12.35,229.40,-0.84,-1.78,20.04,232,201,238,126,1460.00,0,BT,-3.485,0.596,-3.486,-0.642
2021-06-16T17:32:40.43,177,39.073,15.961,36.691,13.480,26.282,14.713,13034,14.999,26.282,2,-0.504,1.034,1.150,334.0,44,-1.191,0.793,-2.236,-0.884,46.33028062,-79.40438359,256.76,247.03,13.78,232.04,-1.33,-1.98,20.02,240,92,233,149,1460.00,0,BT,-3.488,0.596,-3.489,-0.670
2021-06-16T17:32:41.43,178,39.271,15.464,36.988,13.281,26.219,14.356,14276,14.828,26.219,2,-0.472,1.066,1.166,336.1,43,-1.155,0.869,-2.263,-0.754,46.33027229,-79.40441531,259.57,250.19,15.23,235.21,-1.80,-2.28,20.00,240,131,229,73,1460.00,0,BT,-3.476,0.638,-3.474,-0.648
2021-06-16T17:32:42.43,179,41.058,15.564,37.385,13.281,26.788,14.443,13063,14.716,26.788,2,-0.501,1.094,1.203,335.4,45,-1.160,0.928,-2.265,-0.554,46.33026620,-79.40444498,261.43,254.03,16.71,236.54,-1.71,-2.18,20.00,269,132,245,172,1460.00,0,BT,-3.453,0.667,-3.452,-0.649
2021-06-16T17:32:43.43,180,39.867,15.464,37.088,13.281,26.414,14.290,13287,14.719,26.414,2,-0.520,1.049,1.171,333.6,44,-1.196,0.936,-2.212,-0.390,46.33026275,-79.40447085,261.86,258.34,18.23,237.41,-0.84,-1.59,19.99,272,123,200,189,1460.00,0,BT,-3.500,0.646,-3.502,-0.683
2021-06-16T17:32:44.43,181,39.767,15.167,36.293,13.182,26.093,14.082,13152,14.645,26.093,2,-0.536,1.029,1.160,332.5,43,-1.210,0.915,-2.231,-0.348,46.33025978,-79.40449908,261.31,261.22,19.75,237.10,-0.69,-1.43,19.97,230,210,225,163,1460.00,0,BT,-3.467,0.650,-3.465,-0.673
2021-06-16T17:32:45.43,182,39.668,15.266,36.889,13.281,26.273,14.182,13116,14.508,26.273,2,-0.609,1.013,1.182,329.0,44,-1.289,0.902,-2.216,-0.328,46.33025795,-79.40452642,260.39,261.74,21.32,236.55,-0.16,-1.36,19.97,249,181,239,150,1460.00,0,BT,-3.490,0.682,-3.476,-0.687
2021-06-16T17:32:46.43,183,38.676,15.266,36.393,13.083,25.855,14.175,13116,14.519,25.855,2,-0.611,1.010,1.180,328.8,43,-1.255,0.851,-2.237,-0.352,46.33025532,-79.40455414,259.37,261.29,22.84,235.50,0.12,-1.14,19.96,231,183,222,172,1460.00,0,BT,-3.461,0.619,-3.460,-0.695
2021-06-16T17:32:47.43,184,38.676,15.167,35.797,12.884,25.634,14.264,13622,14.475,25.634,2,-0.600,1.016,1.180,329.4,42,-1.311,0.863,-2.249,-0.419,46.33025231,-79.40458136,259.02,261.52,24.41,235.11,0.41,-0.64,19.96,232,141,237,130,1460.00,0,BT,-3.490,0.621,-3.487,-0.724
2021-06-16T17:32:48.43,185,37.286,15.167,35.897,12.784,25.279,14.103,12677,14.324,25.279,2,-0.523,1.051,1.174,333.6,42,-1.210,0.867,-2.246,-0.523,46.33024731,-79.40461477,260.00,258.38,25.90,237.04,-0.54,-1.53,19.95,247,199,400,173,1460.00,0,BT,-3.457,0.635,-3.455,-0.667
2021-06-16T17:32:49.43,186,37.187,14.969,36.293,12.587,25.248,13.977,12638,14.192,25.248,2,-0.496,1.039,1.151,334.5,42,-1.145,0.889,-2.281,-0.492,46.33024111,-79.40464661,261.82,256.94,27.35,238.77,-1.27,-1.69,19.95,236,111,227,187,1460.00,0,BT,-3.456,0.624,-3.441,-0.649
2021-06-16T17:32:50.43,187,36.493,14.969,34.308,12.487,24.552,13.835,12784,14.127,24.552,2,-0.483,1.093,1.195,336.2,40,-1.191,0.986,-2.276,-0.386,46.33023715,-79.40467584,263.47,259.06,28.89,240.40,-1.12,-1.67,19.95,218,162,203,78,1460.00,0,BT,-3.528,0.631,-3.521,-0.725
2021-06-16T17:32:51.43,188,38.080,36.691,34.606,12.289,30.477,13.630,13427,13.884,30.477,2,1.318,-0.498,1.409,110.7,51,2.666,-2.158,-2.297,-0.316,46.33023435,-79.40470503,264.72,261.38,32.32,242.62,-0.75,-1.62,19.95,219,213,212,106,1460.00,0,BT,-3.498,-3.499,-3.502,-0.673
2021-06-16T17:32:52.43,189,39.569,35.996,33.813,12.190,30.448,13.444,12513,13.704,30.448,2,3.191,-2.126,3.835,123.7,51,2.605,-2.206,-2.270,-0.274,46.33023148,-79.40473439,265.60,262.12,35.73,244.28,-0.67,-1.61,19.95,250,205,244,168,1460.00,0,BT,-3.515,-3.486,-3.503,-0.673
2021-06-16T17:32:53.43,190,37.485,33.813,32.323,11.990,28.950,13.324,13105,13.583,28.950,2,3.154,-2.136,3.809,124.1,48,2.551,-2.171,-2.283,-0.196,46.33022917,-79.40476386,265.92,264.24,39.08,243.52,-0.68,-1.50,19.96,239,235,236,121,1460.00,0,BT,-3.450,-3.447,-3.446,-0.682
2021-06-16T17:32:54.43,191,NaN,NaN,NaN,NaN,0.000,0.600,12360,13.371,28.950,1,0.749,-1.169,1.389,147.4,48,NaN,NaN,-2.244,-0.187,46.33022676,-79.40478856,265.82,265.74,0.00,244.19,-0.43,-1.49,19.96,0,0,0,0,1460.00,1,BT,NaN,NaN,NaN,NaN
2021-06-16T17:32:55.43,192,42.248,35.003,31.530,11.693,30.163,12.883,13080,13.153,30.163,2,3.184,-2.161,3.848,124.2,51,2.616,-2.175,-2.252,-0.178,46.33022616,-79.40482170,265.56,265.51,0.00,243.46,-0.63,-1.47,19.96,406,239,246,216,1460.00,0,BT,-3.489,-3.504,-3.503,-0.695
2021-06-16T17:32:56.43,193,40.462,34.210,32.026,11.495,29.597,12.725,13060,12.991,29.597,2,3.192,-2.120,3.832,123.6,50,2.592,-2.153,-2.283,-0.157,46.33022508,-79.40485094,265.25,266.33,3.37,242.72,-0.49,-1.46,19.97,261,243,243,100,1460.00,0,BT,-3.494,-3.497,-3.498,-0.715
2021-06-16T17:32:57.43,194,33.912,32.026,31.134,11.197,27.119,12.511,12714,12.757,27.119,2,3.239,-2.116,3.869,123.2,45,2.599,-2.149,-2.265,-0.176,46.33022379,-79.40487989,264.90,265.61,6.74,242.97,-0.40,-1.52,19.97,238,231,230,88,1460.00,0,BT,-3.478,-3.476,-3.476,-0.693
2021-06-16T17:32:58.43,195,32.423,29.644,30.935,11.098,26.067,12.299,12766,12.539,26.067,2,3.286,-2.093,3.896,122.5,43,2.594,-2.104,-2.310,-0.190,46.33022183,-79.40490979,264.46,265.54,10.08,241.58,-0.57,-1.40,19.97,201,203,205,109,1460.00,0,BT,-3.458,-3.453,-3.453,-0.692
2021-06-16T17:32:59.43,196,NaN,NaN,NaN,NaN,0.000,12.066,12777,12.311,26.067,1,0.810,-1.103,1.369,143.7,43,NaN,NaN,-2.298,-0.180,46.33022078,-79.40493916,263.81,265.43,0.00,240.93,-0.33,-1.51,19.99,0,0,0,0,1460.00,1,BT,NaN,NaN,NaN,NaN
2021-06-16T17:33:00.43,197,32.721,32.423,32.721,10.701,27.188,11.794,13084,12.065,27.188,2,0.560,-0.971,1.121,150.0,45,2.615,-2.009,-2.325,-0.170,46.33021890,-79.40496821,262.97,265.95,0.00,238.41,-0.47,-1.20,19.99,493,245,471,154,1460.00,0,BT,-3.438,-3.471,-3.439,-0.737
2021-06-16T17:33:01.43,198,31.331,32.026,30.637,10.502,26.170,0.600,12326,11.840,26.170,2,3.258,-1.884,3.764,120.0,43,2.601,-1.933,-2.278,-0.195,46.33021690,-79.40499446,261.98,265.56,3.24,237.17,-0.43,-1.21,19.99,248,238,238,86,1460.00,0,BT,-3.425,-3.426,-3.423,-0.740
2021-06-16T17:33:02.43,199,31.530,30.141,29.644,10.205,25.424,0.600,12406,11.614,25.424,2,3.334,-1.818,3.798,118.6,42,2.693,-1.899,-2.286,-0.225,46.33021533,-79.40502349,260.74,264.73,6.54,235.35,-0.70,-1.36,20.00,238,246,232,119,1460.00,0,BT,-3.453,-3.450,-3.449,-0.725
2021-06-16T17:33:03.43,200,31.232,30.141,29.049,10.006,25.154,11.190,12784,11.399,25.154,2,3.362,-1.792,3.810,118.1,42,2.697,-1.818,-2.279,-0.254,46.33021451,-79.40505591,259.20,264.13,9.79,233.98,-0.28,-1.35,20.00,237,224,225,133,1460.00,0,BT,-3.440,-3.438,-3.438,-0.749
2021-06-16T17:33:04.43,201,31.134,51.577,30.141,9.808,30.758,10.964,13557,11.124,30.758,2,3.238,-1.676,3.646,117.4,52,2.715,-1.636,-2.276,-0.275,46.33021251,-79.40508466,257.46,264.00,12.96,230.51,-0.33,-1.19,20.00,284,653,276,296,1460.00,0,BT,-3.454,-3.374,-3.504,-0.748
2021-06-16T17:33:05.43,202,30.240,54.267,27.958,9.708,30.633,10.742,13455,10.931,30.633,2,3.324,-1.584,3.682,115.5,51,2.809,-1.666,-2.281,-0.325,46.33021032,-79.40511314,255.67,262.38,16.23,228.36,-0.16,-1.06,20.01,223,213,225,140,1460.00,0,BT,-3.443,-3.441,-3.436,-0.728
2021-06-16T17:33:06.43,203,31.134,52.183,27.461,9.610,30.188,0.600,12358,10.775,30.188,2,3.382,-1.519,3.708,114.2,51,2.878,-1.570,-2.238,-0.354,46.33020726,-79.40513964,253.77,261.72,19.50,225.64,-0.14,-1.13,20.01,198,197,197,84,1460.00,0,BT,-3.453,-3.454,-3.454,-0.733
2021-06-16T17:33:07.43,204,30.041,53.871,29.247,9.510,30.733,10.446,13284,10.610,30.733,2,3.447,-1.421,3.728,112.4,52,2.923,-1.494,-2.233,-0.446,46.33020530,-79.40516929,251.84,260.28,22.79,223.42,0.28,-0.76,20.02,227,223,225,148,1460.00,0,BT,-3.482,-3.484,-3.483,-0.744
2021-06-16T17:33:08.43,205,30.041,53.374,26.767,9.410,29.961,0.600,12466,10.524,29.961,2,3.524,-1.308,3.759,110.4,50,3.007,-1.375,-2.206,-0.476,46.33020080,-79.40519659,249.84,258.33,26.09,219.69,0.25,-0.71,20.02,254,219,208,117,1460.00,0,BT,-3.480,-3.510,-3.505,-0.748
2021-06-16T17:33:09.43,206,29.346,48.611,27.561,3.754,27.321,10.127,12752,10.404,27.321,2,3.573,-1.167,3.759,108.1,45,2.954,-1.284,-2.186,-0.531,46.33019838,-79.40522382,247.85,257.31,29.31,216.09,1.01,-0.04,20.02,241,241,241,229,1460.00,0,BT,-3.486,-3.484,-3.502,-0.763
2021-06-16T17:33:10.43,207,30.240,53.374,27.164,9.213,30.029,10.080,12557,10.235,30.029,2,3.526,-1.030,3.673,106.3,50,3.017,-1.201,-2.151,-0.653,46.33019318,-79.40525257,245.99,254.30,32.56,213.46,0.71,-0.33,20.03,238,238,242,157,1460.00,0,BT,-3.479,-3.479,-3.477,-0.749
2021-06-16T17:33:11.43,208,29.446,54.367,27.263,5.838,29.317,9.913,12913,10.138,29.317,2,3.612,-0.975,3.741,105.1,49,3.179,-1.119,-2.100,-0.739,46.33018678,-79.40528161,244.32,251.79,35.93,210.84,0.09,-0.93,20.03,241,237,246,211,1460.00,0,BT,-3.528,-3.527,-3.528,-0.721
2021-06-16T17:33:12.43,209,29.149,47.917,26.171,9.213,28.159,9.846,12729,10.121,28.159,2,3.674,-0.845,3.770,102.9,47,3.119,-1.010,-2.098,-0.780,46.33017983,-79.40530804,242.92,249.63,39.21,207.76,-0.04,-0.62,20.02,234,232,227,176,1460.00,0,BT,-3.468,-3.469,-3.466,-0.726
2021-06-16T17:33:13.43,210,NaN,NaN,NaN,NaN,0.000,9.839,12959,10.042,28.159,1,1.087,-0.660,1.272,121.3,47,NaN,NaN,-2.090,-0.809,46.33017298,-79.40533576,241.66,249.20,0.00,206.79,-0.15,-0.90,20.02,0,0,0,0,1460.00,1,BT,NaN,NaN,NaN,NaN
2021-06-16T17:33:14.43,211,28.355,50.894,27.362,9.013,29.039,9.716,12638,9.924,29.039,2,1.181,-0.605,1.327,117.1,49,3.314,-0.923,-2.003,-0.993,46.33016493,-79.40536413,240.92,246.00,0.00,207.92,-0.43,-1.73,20.02,246,236,235,119,1460.00,0,BT,-3.506,-3.506,-3.505,-0.676
2021-06-16T17:33:15.43,212,30.141,53.176,27.759,9.013,30.162,9.641,12801,9.888,30.162,2,3.807,-0.649,3.862,99.7,51,3.295,-0.899,-2.030,-0.999,46.33015564,-79.40539012,240.71,242.94,3.42,206.96,-0.56,-1.76,20.02,210,205,205,198,1460.00,0,BT,-3.520,-3.518,-3.518,-0.711
2021-06-16T17:33:16.43,213,29.346,47.420,26.866,8.914,28.232,9.691,12733,9.860,28.232,2,3.827,-0.602,3.874,98.9,47,3.270,-0.899,-2.023,-0.977,46.33014705,-79.40541553,240.57,244.35,6.81,206.48,-0.34,-1.35,20.02,239,243,236,141,1460.00,0,BT,-3.518,-3.513,-3.513,-0.707
2021-06-16T17:33:17.43,214,28.652,47.817,27.362,8.914,28.305,9.537,12816,9.797,28.305,2,3.805,-0.622,3.856,99.3,47,3.293,-0.912,-2.000,-1.049,46.33013753,-79.40544210,240.73,242.40,10.23,207.98,-0.52,-1.68,20.03,261,232,230,124,1460.00,0,BT,-3.524,-3.514,-3.513,-0.701
2021-06-16T17:33:18.43,215,29.149,52.977,27.561,9.013,29.788,9.427,13897,9.726,29.788,2,3.774,-0.641,3.828,99.6,50,3.290,-0.913,-1.995,-1.078,46.33012742,-79.40546745,240.96,241.20,13.64,206.80,-0.57,-1.40,20.03,260,258,260,128,1460.00,0,BT,-3.530,-3.529,-3.527,-0.706
2021-06-16T17:33:19.43,216,29.247,52.680,26.667,8.914,29.531,9.460,12763,9.685,29.531,2,3.817,-0.658,3.873,99.8,49,3.335,-0.944,-2.000,-1.069,46.33011807,-79.40549455,241.05,241.65,17.11,208.77,-0.45,-1.95,20.03,245,244,238,97,1460.00,0,BT,-3.533,-3.535,-3.526,-0.693
2021-06-16T17:33:20.43,217,30.737,47.917,28.255,8.716,29.035,9.275,12883,9.628,29.035,2,3.810,-0.655,3.866,99.8,49,3.288,-0.906,-2.014,-1.063,46.33010803,-79.40552031,240.95,241.59,20.52,207.65,-0.70,-1.88,20.04,195,204,202,81,1460.00,0,BT,-3.494,-3.491,-3.491,-0.692
2021-06-16T17:33:21.43,218,NaN,NaN,NaN,NaN,0.000,9.407,13208,9.614,29.035,1,1.072,-0.706,1.284,123.3,49,NaN,NaN,-2.016,-1.054,46.33009901,-79.40554596,240.54,242.30,0.00,206.75,-0.30,-1.64,20.05,0,0,0,0,1460.00,1,BT,NaN,NaN,NaN,NaN
2021-06-16T17:33:22.43,219,30.339,52.779,27.858,8.914,30.094,9.358,13173,9.646,30.094,2,1.089,-0.681,1.284,122.0,50,3.346,-0.840,-1.991,-1.087,46.33008919,-79.40557159,239.91,241.82,0.00,204.49,-0.56,-1.53,20.06,438,256,256,173,1460.00,0,BT,-3.534,-3.548,-3.549,-0.702
2021-06-16T17:33:23.43,220,NaN,NaN,NaN,NaN,0.000,9.439,13125,9.627,30.094,1,1.134,-0.703,1.334,121.8,50,NaN,NaN,-2.011,-1.105,46.33007990,-79.40559766,239.31,241.42,0.00,204.71,-0.28,-1.59,20.06,0,0,0,0,1460.00,1,BT,NaN,NaN,NaN,NaN
2021-06-16T17:33:24.43,221,31.034,47.817,26.866,8.914,28.773,9.443,12702,9.618,28.773,2,3.790,-0.506,3.823,97.6,48,3.266,-0.793,-1.958,-1.103,46.33007012,-79.40562337,238.88,240.78,0.00,205.34,-0.26,-1.64,20.07,235,229,227,237,1460.00,0,BT,-3.464,-3.462,-3.464,-0.695
2021-06-16T17:33:25.43,222,NaN,NaN,NaN,NaN,0.000,9.394,13516,9.556,28.773,1,1.162,-0.691,1.352,120.8,48,NaN,NaN,-1.972,-1.166,46.33005907,-79.40564849,238.76,239.34,0.00,203.47,-0.71,-1.47,20.08,0,0,0,0,1460.00,1,BT,NaN,NaN,NaN,NaN
