Date_Time,EnsNo,BT1Depth,BT2Depth,BT3Depth,BT4Depth,BTDepth,AltiDepth,AltiDepthQ,BeamDepth,DEPTH,D_Source,VEast,VNorth,Vel_avg,Dir_avg,Range,BTEast,BTNorth,GPSEast,GPSNorth,LAT,LON,GPSHeading,GPSBearing,DistTravelled,SHeading,SPitch,SRoll,STempC,fom1,fom2,fom3,fom4,SoundSpd,Valid,CorrSrc,BT1Vel,BT2Vel,BT3Vel,BT4Vel
2021-06-16T18:29:25.43,0,49.989,45.424,49.592,49.791,48.611,21.630,13540,21.987,48.611,2,-0.147,0.256,0.295,330.2,84,-0.097,0.212,0.281,-0.169,46.31978088,-79.36714180,136.15,-32768.00,0.00,82.57,-1.46,-2.56,20.02,588,482,585,588,1460.00,0,BT,-3.635,-3.660,-3.634,-3.635
2021-06-16T18:29:26.43,1,55.359,54.267,55.062,36.393,50.296,21.629,13061,21.971,50.296,2,-0.144,0.275,0.311,332.4,87,-0.096,0.261,0.276,-0.170,46.31977936,-79.36713770,136.66,117.30,0.28,83.08,-1.47,-2.58,20.02,269,273,247,642,1460.00,0,BT,-3.643,-3.639,-3.643,-3.573
2021-06-16T18:29:27.43,2,65.183,54.267,54.466,44.531,54.561,21.616,13135,21.982,54.561,2,-0.137,0.256,0.291,331.8,95,-0.092,0.181,0.309,-0.179,46.31977780,-79.36713431,136.99,121.31,0.48,83.39,-1.40,-2.58,20.02,224,226,226,229,1460.00,0,BT,-3.667,-3.666,-3.666,-3.670
2021-06-16T18:29:28.43,3,62.901,54.565,54.565,49.493,55.313,21.645,13271,21.987,55.313,2,-0.174,0.278,0.328,328.0,96,-0.131,0.238,0.309,-0.174,46.31977643,-79.36713019,137.51,120.31,0.75,83.45,-1.42,-2.50,20.02,512,264,278,557,1460.00,0,BT,-3.618,-3.655,-3.654,-3.606
2021-06-16T18:29:29.43,4,59.726,54.267,49.305,56.848,54.918,21.636,13248,21.978,54.918,2,-0.160,0.259,0.305,328.3,95,-0.093,0.198,0.295,-0.126,46.31977456,-79.36712666,137.97,115.46,0.97,84.22,-1.36,-2.68,20.02,273,216,243,210,1460.00,0,BT,-3.643,-3.656,-3.649,-3.652
2021-06-16T18:29:30.43,5,59.726,54.168,54.565,62.803,57.692,21.619,12853,21.987,57.692,2,-0.142,0.257,0.294,331.1,100,-0.100,0.232,0.278,-0.168,46.31977389,-79.36712305,138.34,125.32,1.22,84.60,-1.39,-2.39,20.02,315,233,236,516,1460.00,0,BT,-3.654,-3.665,-3.667,-3.617
2021-06-16T18:29:31.43,6,59.924,52.382,52.085,60.520,56.084,21.635,13146,21.992,56.084,2,-0.129,0.241,0.274,331.8,97,-0.074,0.177,0.270,-0.161,46.31977149,-79.36711916,138.80,120.78,1.42,84.45,-1.44,-2.64,20.02,233,242,251,233,1460.00,0,BT,-3.704,-3.691,-3.690,-3.705
2021-06-16T18:29:32.43,7,58.336,49.107,49.305,58.237,53.611,21.645,13258,21.989,53.611,2,-0.122,0.194,0.229,327.9,93,-0.074,0.158,0.271,-0.177,46.31977089,-79.36711531,139.27,117.34,1.59,85.45,-1.43,-2.41,20.02,253,219,239,242,1460.00,0,BT,-3.660,-3.648,-3.647,-3.662
2021-06-16T18:29:33.43,8,63.497,49.405,54.863,60.321,56.875,21.632,13647,21.992,56.875,2,-0.144,0.208,0.253,325.2,99,-0.128,0.200,0.273,-0.146,46.31976878,-79.36711346,139.59,120.60,1.83,85.00,-1.08,-2.62,20.02,539,239,231,375,1460.00,0,BT,-3.606,-3.657,-3.663,-3.652
2021-06-16T18:29:34.43,9,63.100,54.466,54.466,56.352,56.982,21.631,13384,21.989,56.982,2,-0.181,0.231,0.294,322.0,99,-0.151,0.197,0.315,-0.152,46.31976713,-79.36710785,140.07,118.43,2.08,85.19,-1.44,-2.65,20.02,583,248,243,249,1460.00,0,BT,-3.576,-3.633,-3.633,-3.634
2021-06-16T18:29:35.43,10,62.206,58.535,58.733,62.306,60.337,21.603,13404,21.989,60.337,2,-0.122,0.222,0.254,331.2,105,-0.087,0.188,0.284,-0.172,46.31976593,-79.36710375,140.55,120.42,2.28,86.78,-1.46,-2.53,20.02,259,253,241,255,1460.00,0,BT,-3.685,-3.685,-3.686,-3.686
2021-06-16T18:29:36.43,11,59.924,55.062,55.756,59.726,57.502,21.647,13302,21.998,57.502,2,-0.136,0.231,0.268,329.5,100,-0.102,0.195,0.274,-0.143,46.31976461,-79.36710000,140.77,119.20,2.50,87.25,-1.56,-2.53,20.02,320,252,244,306,1460.00,0,BT,-3.665,-3.673,-3.674,-3.668
2021-06-16T18:29:37.43,12,62.803,54.267,54.168,56.451,56.796,21.638,12862,21.983,56.796,2,-0.162,0.239,0.289,325.8,99,-0.132,0.205,0.309,-0.176,46.31976237,-79.36709584,141.25,120.55,2.75,86.39,-1.61,-2.70,20.02,478,226,223,228,1460.00,0,BT,-3.622,-3.656,-3.656,-3.656
2021-06-16T18:29:38.43,13,63.100,54.466,54.367,49.592,55.291,21.622,13109,21.989,55.291,2,-0.185,0.283,0.338,326.8,96,-0.150,0.284,0.253,-0.194,46.31976094,-79.36709164,141.65,117.78,3.07,88.21,-1.71,-2.71,20.02,577,225,243,598,1460.00,0,BT,-3.619,-3.674,-3.672,-3.611
2021-06-16T18:29:39.43,14,60.917,52.680,54.962,45.523,53.458,21.618,13524,21.984,53.458,2,-0.159,0.277,0.319,330.2,93,-0.090,0.195,0.295,-0.152,46.31975934,-79.36708823,142.04,121.83,3.28,88.28,-1.64,-2.71,20.02,221,234,246,207,1460.00,0,BT,-3.681,-3.671,-3.679,-3.679
2021-06-16T18:29:40.43,15,55.657,54.565,62.604,34.905,51.983,21.658,13094,21.985,51.983,2,-0.108,0.230,0.254,334.8,90,-0.051,0.190,0.282,-0.173,46.31975805,-79.36708353,142.39,118.29,3.48,88.23,-1.81,-2.64,20.02,247,234,569,224,1460.00,0,BT,-3.669,-3.668,-3.624,-3.671
2021-06-16T18:29:41.43,16,48.897,54.367,54.863,35.412,48.437,21.643,13273,21.992,48.437,2,-0.137,0.268,0.301,332.9,83,-0.141,0.266,0.238,-0.176,46.31975700,-79.36708171,142.78,123.95,3.78,88.28,-1.46,-2.52,20.02,589,253,260,349,1460.00,0,BT,-3.621,-3.681,-3.683,-3.624
2021-06-16T18:29:42.43,17,55.657,49.206,54.565,40.473,49.940,21.625,13237,21.970,49.940,2,-0.041,0.312,0.315,352.6,86,0.024,0.263,0.306,-0.140,46.31975271,-79.36708452,143.16,116.43,4.04,84.24,-0.26,-3.58,20.02,270,237,275,270,1460.00,0,BT,-3.684,-3.676,-3.680,-3.667
2021-06-16T18:29:43.43,18,62.604,54.367,54.267,49.294,55.084,21.637,13321,21.969,55.084,2,-0.038,0.271,0.274,352.0,95,0.033,0.166,0.350,-0.228,46.31975334,-79.36707922,143.97,120.78,4.21,88.77,-0.42,-2.88,20.02,223,204,223,219,1460.00,0,BT,-3.698,-3.669,-3.668,-3.699
2021-06-16T18:29:44.43,19,56.153,54.069,54.565,56.650,55.230,21.633,13836,21.965,55.230,2,-0.062,0.290,0.296,348.0,96,0.016,0.242,0.592,-0.321,46.31974858,-79.36707285,146.31,120.60,4.45,92.06,-0.59,-3.54,20.02,255,220,222,246,1460.00,0,BT,-3.679,-3.672,-3.670,-3.680
2021-06-16T18:29:45.43,20,55.657,54.069,54.565,63.100,56.590,21.606,13285,21.892,56.590,2,-0.083,0.438,0.446,349.3,98,0.022,0.372,0.780,-0.544,46.31974122,-79.36706206,150.18,122.81,4.83,95.23,-1.10,-4.37,20.02,263,261,263,506,1460.00,0,BT,-3.679,-3.677,-3.678,-3.629
2021-06-16T18:29:46.43,21,47.905,53.672,54.466,56.153,52.775,21.560,13058,21.808,52.775,2,-0.173,0.579,0.605,343.3,91,-0.147,0.435,0.795,-0.778,46.31973045,-79.36704451,153.97,128.79,5.29,98.47,-2.88,-5.22,20.02,501,229,223,233,1460.00,0,BT,-3.597,-3.663,-3.664,-3.665
2021-06-16T18:29:47.43,22,46.615,53.275,53.176,56.550,52.154,21.539,13030,21.833,52.154,2,-0.208,0.620,0.654,341.5,90,-0.050,0.385,0.560,-1.011,46.31972323,-79.36703514,154.98,141.32,5.68,98.09,-2.78,-4.92,20.02,239,252,248,242,1460.00,0,BT,-3.702,-3.689,-3.687,-3.692
2021-06-16T18:29:48.43,23,49.194,54.565,54.565,56.748,53.737,21.554,13095,21.900,53.737,2,-0.134,0.468,0.487,344.0,93,-0.019,0.108,0.457,-1.152,46.31972899,-79.36703987,152.83,157.61,5.79,91.35,0.65,-1.33,20.02,657,216,216,223,1460.00,0,BT,-3.590,-3.672,-3.672,-3.669
2021-06-16T18:29:49.43,24,55.657,54.168,54.168,58.833,55.658,21.550,13210,21.904,55.658,2,-0.121,0.346,0.366,340.7,96,-0.038,0.125,0.572,-1.290,46.31971521,-79.36702707,149.43,158.37,5.92,100.78,-0.98,-1.63,20.02,216,207,210,213,1460.00,0,BT,-3.712,-3.710,-3.710,-3.714
2021-06-16T18:29:50.43,25,62.703,54.367,54.466,55.955,56.834,21.521,13177,21.901,56.834,2,-0.138,0.333,0.360,337.5,99,-0.058,0.105,0.655,-1.324,46.31970426,-79.36702164,145.90,156.68,6.04,90.39,-0.71,-1.43,20.02,580,277,277,301,1460.00,0,BT,-3.676,-3.699,-3.699,-3.707
2021-06-16T18:29:51.43,26,59.726,54.267,54.565,63.000,57.760,21.498,12893,21.855,57.760,2,-0.183,0.344,0.389,332.0,100,-0.102,0.176,0.650,-1.196,46.31968991,-79.36700987,143.08,153.61,6.24,86.39,-1.76,-2.24,20.02,253,242,250,247,1460.00,0,BT,-3.715,-3.715,-3.715,-3.715
2021-06-16T18:29:52.43,27,58.336,55.657,49.305,57.443,55.063,21.491,13045,21.824,55.063,2,-0.216,0.397,0.452,331.5,95,-0.068,0.216,0.673,-1.115,46.31967767,-79.36700431,140.74,150.33,6.47,84.40,-1.34,-2.93,20.02,248,246,269,244,1460.00,0,BT,-3.682,-3.679,-3.677,-3.678
2021-06-16T18:29:53.43,28,61.412,54.466,54.565,55.558,56.490,21.476,13048,21.840,56.490,2,-0.147,0.355,0.384,337.6,98,0.052,0.084,0.800,-1.170,46.31967401,-79.36700764,139.10,148.88,6.57,87.27,1.25,-1.18,20.02,460,216,215,234,1460.00,0,BT,-3.655,-3.691,-3.691,-3.687
2021-06-16T18:29:54.43,29,55.259,54.367,54.962,59.726,56.040,21.483,12563,21.847,56.040,2,-0.099,0.312,0.328,342.4,97,0.062,0.098,0.966,-1.234,46.31966207,-79.36699430,138.23,143.86,6.68,82.42,0.79,-1.45,20.01,259,248,251,346,1460.00,0,BT,-3.688,-3.684,-3.688,-3.685
2021-06-16T18:29:55.43,30,55.062,54.168,54.466,60.917,56.020,21.457,14217,21.802,56.020,2,-0.161,0.403,0.435,338.2,97,-0.005,0.229,1.070,-1.345,46.31964440,-79.36697678,137.74,142.08,6.91,80.38,-0.26,-3.22,20.02,252,234,245,223,1460.00,0,BT,-3.695,-3.692,-3.693,-3.692
2021-06-16T18:29:56.43,31,55.259,54.168,54.665,62.008,56.311,21.435,13323,21.759,56.311,2,-0.232,0.607,0.650,339.1,98,0.003,0.336,1.276,-1.449,46.31962885,-79.36696194,137.89,139.51,7.25,80.10,-0.19,-4.14,20.02,282,284,274,592,1460.00,0,BT,-3.708,-3.702,-3.708,-3.668
2021-06-16T18:29:57.43,32,55.657,49.206,54.466,55.459,53.528,21.435,13425,21.722,53.528,2,-0.263,0.589,0.645,336.0,93,-0.026,0.238,1.432,-1.654,46.31961610,-79.36694188,138.40,138.60,7.49,81.73,-0.65,-3.77,20.02,258,264,256,268,1460.00,0,BT,-3.654,-3.627,-3.649,-3.651
2021-06-16T18:29:58.43,33,51.489,49.206,49.603,51.489,50.316,21.406,13201,21.681,50.316,2,-0.337,0.589,0.679,330.2,87,-0.076,0.248,1.633,-1.787,46.31960137,-79.36691806,138.90,138.02,7.75,82.78,-1.39,-3.50,20.02,297,289,281,296,1460.00,0,BT,-3.678,-3.673,-3.674,-3.678
2021-06-16T18:29:59.43,34,56.848,54.267,54.565,58.038,55.751,21.428,13179,21.631,55.751,2,-0.341,0.577,0.670,329.4,97,-0.086,0.281,1.636,-1.933,46.31958344,-79.36689618,139.40,138.42,8.04,83.85,-1.48,-3.82,20.02,218,210,212,201,1460.00,0,BT,-3.684,-3.688,-3.687,-3.686
2021-06-16T18:30:00.43,35,57.642,54.367,54.863,60.420,56.637,21.390,12920,21.590,56.637,2,-0.372,0.601,0.707,328.3,98,-0.102,0.262,1.740,-1.998,46.31956701,-79.36687250,139.67,139.47,8.32,84.73,-1.86,-3.45,20.02,232,266,263,399,1460.00,0,BT,-3.701,-3.691,-3.693,-3.685
2021-06-16T18:30:01.43,36,59.825,54.863,55.459,60.420,57.438,21.313,13267,21.467,57.438,2,-0.393,0.609,0.725,327.2,100,-0.129,0.271,1.752,-2.058,46.31954823,-79.36684877,139.83,139.42,8.62,85.25,-2.05,-3.53,20.02,332,270,234,372,1460.00,0,BT,-3.689,-3.691,-3.694,-3.684
2021-06-16T18:30:02.43,37,60.619,55.955,66.970,60.420,60.840,0.600,12437,21.365,60.840,2,-0.318,0.585,0.666,331.5,106,0.005,0.275,1.762,-2.129,46.31954121,-79.36683431,139.41,140.16,8.90,83.23,-1.58,-3.53,20.02,445,249,599,425,1460.00,0,BT,-3.675,-3.699,-3.595,-3.677
2021-06-16T18:30:03.43,38,63.397,63.000,56.947,63.497,61.564,21.127,12749,21.215,61.564,2,-0.375,0.570,0.682,326.6,107,-0.119,0.231,1.766,-2.210,46.31951120,-79.36680462,138.26,141.12,9.16,83.16,-1.74,-3.13,20.02,233,239,225,239,1460.00,0,BT,-3.711,-3.711,-3.717,-3.711
2021-06-16T18:30:04.43,39,19.931,62.803,63.597,63.993,52.609,20.908,12777,20.958,52.609,2,-2.055,0.648,2.155,287.5,91,-3.359,0.280,1.821,-2.208,46.31949210,-79.36678352,136.63,141.10,12.53,81.00,-1.37,-2.97,20.02,131,457,488,482,1460.00,0,BT,-0.839,-3.632,-3.620,-3.618
2021-06-16T18:30:05.43,40,19.434,58.635,57.542,58.237,48.492,0.600,12315,20.654,48.492,2,-3.746,0.630,3.799,279.6,84,-3.396,0.148,1.898,-2.199,46.31948198,-79.36676594,134.98,139.60,15.93,81.26,-1.09,-2.55,20.02,154,228,221,258,1460.00,0,BT,-0.857,-3.677,-3.675,-3.674
2021-06-16T18:30:06.43,41,18.938,62.803,58.336,60.012,50.019,20.236,13050,20.252,50.019,2,-3.736,0.564,3.779,278.6,86,-3.336,0.161,1.969,-2.166,46.31945992,-79.36674204,133.33,139.14,19.27,78.67,0.04,-0.74,20.02,175,604,252,305,1460.00,0,BT,-0.848,-3.609,-3.664,-3.425
2021-06-16T18:30:07.43,42,18.541,64.589,64.688,61.600,52.391,19.794,13484,19.887,52.391,2,-3.729,0.483,3.760,277.4,91,-3.366,0.041,2.056,-2.097,46.31943485,-79.36671185,131.88,136.79,22.63,77.72,-0.88,-2.66,20.02,99,229,237,567,1460.00,0,BT,-0.896,-3.695,-3.693,-3.635
2021-06-16T18:30:08.43,43,17.747,68.657,57.443,61.203,51.332,19.220,13513,19.315,51.332,2,-3.753,0.404,3.774,276.1,89,-3.316,-0.008,2.171,-2.053,46.31941765,-79.36668475,131.03,135.12,25.95,78.67,-1.02,-2.24,20.02,77,613,285,293,1460.00,0,BT,-0.908,-3.519,-3.657,-3.437
2021-06-16T18:30:09.43,44,17.052,68.559,60.111,61.005,51.765,18.580,14027,18.674,51.765,2,-3.631,0.339,3.647,275.3,89,-3.124,-0.066,2.263,-1.970,46.31939685,-79.36665399,131.04,132.82,29.07,77.90,-1.53,-3.21,20.02,121,663,621,628,1460.00,0,BT,-0.916,-3.455,-3.485,-3.477
2021-06-16T18:30:10.43,45,16.556,68.559,60.211,61.997,51.923,17.603,14041,18.089,51.923,2,-3.523,0.349,3.540,275.7,90,-3.142,-0.009,2.224,-2.015,46.31938065,-79.36662515,131.65,131.35,32.21,78.28,-1.51,-2.77,20.02,164,650,667,617,1460.00,0,BT,-0.931,-3.494,-3.513,-3.475
2021-06-16T18:30:11.43,46,15.961,68.359,61.600,62.195,52.130,16.926,14380,17.451,52.130,2,-3.575,0.377,3.595,276.0,90,-3.224,0.026,2.232,-2.005,46.31936229,-79.36659529,132.44,131.61,35.44,79.99,-1.74,-3.07,20.02,103,579,556,550,1460.00,0,BT,-0.972,-3.603,-3.611,-3.607
2021-06-16T18:30:12.43,47,15.366,64.280,60.111,63.684,50.914,16.370,14096,16.742,50.914,2,-3.632,0.434,3.658,276.8,88,-3.215,0.055,2.240,-2.005,46.31934324,-79.36656506,133.39,131.43,38.65,80.02,-1.95,-3.57,20.02,64,534,637,679,1460.00,0,BT,-0.955,-3.499,-3.580,-3.544
2021-06-16T18:30:13.43,48,15.067,61.103,59.218,61.203,49.218,15.890,14222,16.163,49.218,2,-3.694,0.540,3.733,278.3,85,-3.336,0.178,2.208,-2.018,46.31932462,-79.36653319,134.11,131.53,41.99,80.84,-2.77,-4.01,20.03,83,656,606,613,1460.00,0,BT,-0.890,-3.564,-3.579,-3.558
2021-06-16T18:30:14.43,49,14.572,59.814,58.623,58.424,47.902,15.572,14263,15.532,47.902,2,-3.721,0.629,3.774,279.6,83,-3.298,0.209,2.140,-2.076,46.31930545,-79.36650628,134.37,133.06,45.30,79.98,-2.37,-4.38,20.03,352,634,627,629,1460.00,0,BT,-0.930,-3.600,-3.605,-3.602
2021-06-16T18:30:15.43,50,13.877,59.912,61.203,59.218,48.598,15.088,13618,14.976,48.598,2,-3.726,0.600,3.774,279.1,84,-3.379,0.156,2.154,-2.056,46.31928864,-79.36648168,134.08,134.78,48.68,78.05,-1.70,-3.71,20.03,215,486,511,461,1460.00,0,BT,-0.904,-3.680,-3.677,-3.683
2021-06-16T18:30:16.43,51,13.678,58.027,59.715,57.333,47.279,14.479,13402,14.498,47.279,2,-3.741,0.566,3.784,278.6,81,-3.298,0.149,2.209,-2.022,46.31927034,-79.36645096,133.91,133.21,51.98,79.67,-2.50,-3.81,20.03,343,616,608,609,1460.00,0,BT,-0.896,-3.576,-3.565,-3.578
2021-06-16T18:30:17.43,52,13.281,57.741,58.635,54.156,46.026,13.949,13603,14.108,46.026,2,-3.800,0.829,3.890,282.3,79,-3.386,0.405,2.155,-2.083,46.31925177,-79.36642496,133.83,133.71,55.39,79.15,-1.91,-3.90,20.04,148,238,288,335,1460.00,0,BT,-0.936,-3.701,-3.701,-3.488
2021-06-16T18:30:18.43,53,12.983,63.497,53.661,52.768,45.887,13.531,13516,13.529,45.887,2,-3.782,0.702,3.847,280.5,79,-3.335,0.169,2.201,-2.043,46.31923430,-79.36639459,133.87,133.18,58.73,81.25,-2.69,-3.63,20.04,181,556,628,618,1460.00,0,BT,-0.928,-3.645,-3.618,-3.621
2021-06-16T18:30:19.43,54,13.182,58.635,55.944,54.455,45.695,13.185,13100,13.146,45.695,2,-3.782,0.550,3.822,278.3,79,-3.350,0.141,2.213,-2.070,46.31921606,-79.36636495,134.14,132.92,62.09,81.82,-2.96,-3.51,20.04,177,259,345,279,1460.00,0,BT,-0.932,-3.619,-3.623,-3.625
2021-06-16T18:30:20.43,55,12.487,61.711,50.783,51.279,44.196,12.656,13119,12.769,44.196,2,-3.790,0.602,3.837,279.0,76,-3.349,0.260,2.189,-2.080,46.31919577,-79.36633735,134.45,133.92,65.44,81.35,-2.81,-4.35,20.05,202,440,537,539,1460.00,0,BT,-0.924,-3.652,-3.621,-3.614
2021-06-16T18:30:21.43,56,12.289,56.252,51.179,47.905,42.067,12.275,13439,12.374,42.067,2,-3.816,0.682,3.877,280.1,72,-3.360,0.241,2.221,-1.999,46.31917914,-79.36630878,134.64,133.33,68.81,82.20,-3.03,-3.55,20.05,272,298,605,566,1460.00,0,BT,-0.904,-3.679,-3.601,-3.627
2021-06-16T18:30:22.43,57,12.090,62.306,48.600,50.287,43.450,11.969,13050,12.164,43.450,2,-3.822,0.679,3.882,280.1,75,-3.380,0.263,2.112,-2.112,46.31915901,-79.36628284,134.91,134.90,72.20,81.10,-2.46,-4.19,20.06,162,526,551,582,1460.00,0,BT,-0.907,-3.656,-3.649,-3.631
2021-06-16T18:30:23.43,58,12.487,61.005,51.776,50.783,44.142,11.728,13104,11.936,44.142,2,-3.797,0.641,3.850,279.6,76,-3.353,0.142,2.101,-2.145,46.31914164,-79.36625627,135.02,134.57,75.56,81.51,-2.08,-3.44,20.06,177,605,289,266,1460.00,0,BT,-0.918,-3.603,-3.653,-3.649
2021-06-16T18:30:24.43,59,11.892,60.917,48.699,58.722,45.079,11.571,13249,11.667,45.079,2,-3.745,0.757,3.821,281.4,77,-3.337,0.323,2.124,-2.146,46.31912163,-79.36622944,134.99,134.98,78.91,80.55,-1.71,-3.88,20.07,147,413,545,581,1460.00,0,BT,-0.902,-3.670,-3.642,-3.583
2021-06-16T18:30:25.43,60,11.693,62.206,44.641,63.993,45.679,11.334,13356,11.520,45.679,2,-3.751,0.688,3.814,280.4,79,-3.374,0.213,2.108,-2.135,46.31910414,-79.36619974,135.15,134.64,82.29,83.44,-2.42,-3.05,20.07,132,567,449,642,1460.00,0,BT,-0.917,-3.594,-3.656,-3.567
2021-06-16T18:30:26.43,61,7.425,12.090,50.088,59.527,32.075,11.367,13381,11.448,32.075,2,-3.920,-1.866,4.342,244.5,54,-3.352,-5.176,2.114,-2.113,46.31908502,-79.36617351,135.31,134.71,88.46,82.91,-1.88,-3.16,20.07,306,135,278,310,1460.00,0,BT,-0.922,0.826,-3.668,-3.666
2021-06-16T18:30:27.43,62,11.395,11.395,48.997,60.520,32.916,11.188,13697,11.208,32.916,2,-3.931,-4.590,6.043,220.6,56,-3.446,-5.242,2.124,-2.128,46.31906658,-79.36614586,135.28,135.80,94.73,82.73,-2.01,-2.60,20.08,269,107,268,261,1460.00,0,BT,-0.869,0.835,-3.694,-3.693
2021-06-16T18:30:28.43,63,8.319,11.594,46.814,55.447,30.369,11.039,13509,11.090,30.369,2,-4.051,-4.535,6.081,221.8,51,-3.481,-5.158,2.081,-2.127,46.31904673,-79.36611842,134.71,135.24,100.95,79.51,-2.19,-3.12,20.08,293,208,230,557,1460.00,0,BT,-0.798,0.885,-3.691,-3.558
2021-06-16T18:30:29.43,64,11.296,11.594,40.065,62.604,31.216,11.025,13598,11.259,31.216,2,-3.929,-4.618,6.063,220.4,52,-3.218,-5.397,1.934,-2.189,46.31902919,-79.36609597,132.42,137.09,107.24,78.62,-1.06,-2.03,20.08,304,74,261,564,1460.00,0,BT,-0.776,0.883,-3.665,-3.614
2021-06-16T18:30:30.43,65,11.892,11.594,39.470,58.635,30.298,11.043,13263,11.299,30.298,2,-3.605,-4.958,6.130,216.0,51,-2.832,-5.763,1.978,-2.132,46.31901136,-79.36607593,128.54,138.32,113.66,76.35,0.35,-0.80,20.08,183,88,241,225,1460.00,0,BT,-0.736,0.922,-3.673,-3.672
2021-06-16T18:30:31.43,66,NaN,NaN,NaN,NaN,0.000,11.145,13509,11.410,30.298,1,1.475,-1.435,2.057,134.2,51,NaN,NaN,2.088,-1.980,46.31899316,-79.36605412,124.11,135.48,0.00,72.27,1.26,-0.37,20.08,0,0,0,0,1460.00,1,BT,NaN,NaN,NaN,NaN
2021-06-16T18:30:32.43,67,38.477,11.693,36.691,10.899,24.423,11.252,13307,11.472,24.423,2,0.532,-1.380,1.479,158.9,40,0.650,-2.067,2.204,-1.844,46.31897588,-79.36603225,119.95,132.83,0.00,68.93,2.59,0.46,20.09,276,111,243,218,1460.00,0,BT,-3.675,0.855,-3.676,-0.961
2021-06-16T18:30:33.43,68,38.279,11.693,33.714,11.098,23.701,11.319,13455,11.620,23.701,2,-0.192,-1.401,1.414,187.8,39,0.705,-2.039,2.381,-1.586,46.31896002,-79.36600108,116.97,127.25,2.16,69.48,1.45,0.20,20.09,236,127,242,120,1460.00,0,BT,-3.691,0.876,-3.701,-0.941
2021-06-16T18:30:34.43,69,32.820,11.693,32.820,11.197,22.128,11.386,13391,11.718,22.128,2,-0.233,-1.391,1.410,189.5,36,0.787,-2.004,2.396,-1.504,46.31894548,-79.36597002,114.68,123.01,4.31,66.19,1.15,-0.03,20.10,237,259,224,174,1460.00,0,BT,-3.687,0.869,-3.686,-0.951
2021-06-16T18:30:35.43,70,33.316,11.990,32.026,11.296,22.156,11.508,13273,11.848,22.156,2,-0.236,-1.360,1.380,189.8,36,0.852,-1.929,2.447,-1.379,46.31893082,-79.36593730,112.38,121.09,6.42,63.85,0.63,-0.93,20.10,235,199,229,152,1460.00,0,BT,-3.702,0.870,-3.684,-0.940
2021-06-16T18:30:36.43,71,37.000,12.289,31.828,11.594,23.184,11.726,13013,12.130,23.184,2,-0.142,-1.388,1.395,185.8,38,0.926,-1.968,2.490,-1.302,46.31891992,-79.36590787,109.75,118.65,8.59,63.80,0.76,0.05,20.11,326,163,261,171,1460.00,0,BT,-3.629,0.889,-3.653,-0.949
2021-06-16T18:30:37.43,72,33.217,12.190,31.927,11.892,22.302,11.922,13073,12.288,22.302,2,-0.057,-1.425,1.426,182.3,36,1.122,-1.955,2.525,-1.251,46.31890731,-79.36587853,106.57,117.11,10.85,59.89,1.59,0.24,20.11,218,125,222,210,1460.00,0,BT,-3.688,0.896,-3.689,-1.002
2021-06-16T18:30:38.43,73,33.912,12.686,31.629,12.190,22.602,12.096,12877,12.518,22.602,2,0.095,-1.392,1.395,176.1,37,1.198,-1.783,2.569,-1.105,46.31889584,-79.36584714,102.94,114.94,13.00,54.95,1.66,0.23,20.12,239,241,246,108,1460.00,0,BT,-3.665,0.878,-3.657,-0.930
2021-06-16T18:30:39.43,74,34.408,13.182,32.323,12.487,23.099,12.400,12616,12.904,23.099,2,0.186,-1.442,1.454,172.7,38,1.342,-1.770,2.636,-0.947,46.31888552,-79.36581362,99.12,111.46,15.22,54.35,1.44,-0.04,20.13,239,169,242,188,1460.00,0,BT,-3.647,0.915,-3.648,-0.963
2021-06-16T18:30:40.43,75,34.905,13.380,32.423,12.784,23.345,12.750,12669,13.213,23.345,2,0.335,-1.412,1.451,166.6,38,1.509,-1.639,2.650,-0.806,46.31887685,-79.36578695,95.19,108.36,17.45,51.40,3.10,1.49,20.13,241,237,246,121,1460.00,0,BT,-3.708,0.904,-3.706,-0.933
2021-06-16T18:30:41.43,76,35.400,13.480,32.225,13.182,23.540,13.061,12734,13.536,23.540,2,0.470,-1.331,1.412,160.5,39,1.629,-1.545,2.704,-0.605,46.31886941,-79.36575494,91.40,104.96,19.69,49.38,3.32,1.87,20.13,233,121,230,139,1460.00,0,BT,-3.626,0.909,-3.624,-0.932
2021-06-16T18:30:42.43,77,35.400,13.678,32.820,13.579,23.834,13.284,12516,13.839,23.834,2,0.560,-1.300,1.415,156.7,39,1.709,-1.432,2.759,-0.432,46.31886351,-79.36572035,87.92,100.85,21.92,46.49,3.29,1.92,20.14,243,245,241,173,1460.00,0,BT,-3.664,0.846,-3.662,-0.979
2021-06-16T18:30:43.43,78,35.500,13.579,33.416,14.175,24.162,13.634,12718,14.082,24.162,2,0.665,-1.323,1.481,153.3,40,1.782,-1.365,2.753,-0.190,46.31885933,-79.36567899,85.10,96.84,24.16,43.93,1.92,0.21,20.14,242,96,245,160,1460.00,0,BT,-3.688,0.871,-3.659,-1.017
2021-06-16T18:30:44.43,79,36.889,13.678,34.111,14.670,24.828,13.905,12620,14.331,24.828,2,0.652,-1.315,1.467,153.6,41,1.617,-1.277,2.810,-0.018,46.31885823,-79.36563622,83.21,91.31,26.23,41.05,0.55,-1.46,20.15,215,151,210,139,1460.00,0,BT,-3.639,0.851,-3.658,-0.935
2021-06-16T18:30:45.43,80,33.019,14.075,34.606,15.167,24.166,14.249,13054,14.674,24.166,2,0.445,-1.293,1.367,161.0,40,1.566,-1.269,2.797,0.077,46.31886001,-79.36559086,81.77,89.13,28.24,40.49,-1.75,-3.21,20.15,283,184,257,198,1460.00,0,BT,-3.644,0.848,-3.656,-0.954
2021-06-16T18:30:46.43,81,26.072,12.587,35.301,15.564,22.342,0.600,12398,15.030,22.342,2,0.379,-1.293,1.347,163.7,37,1.585,-1.216,2.845,0.161,46.31886217,-79.36556588,80.51,86.89,30.24,39.05,-1.79,-3.44,20.15,247,220,243,171,1460.00,0,BT,-3.668,0.824,-3.668,-0.971
2021-06-16T18:30:47.43,82,30.252,14.770,35.996,14.273,23.794,15.039,12560,15.376,23.794,2,0.494,-1.312,1.402,159.4,39,1.615,-1.223,2.839,0.254,46.31886321,-79.36551635,79.25,85.26,32.26,38.78,-1.88,-3.38,20.16,348,121,230,166,1460.00,0,BT,-3.650,0.833,-3.675,-0.983
2021-06-16T18:30:48.43,83,32.026,15.067,36.393,16.159,24.857,15.408,12752,15.709,24.857,2,0.571,-1.317,1.435,156.6,41,1.617,-1.152,2.849,0.338,46.31886685,-79.36547829,77.92,83.28,34.25,37.57,-2.36,-3.52,20.16,217,100,217,132,1460.00,0,BT,-3.672,0.859,-3.671,-0.927
2021-06-16T18:30:49.43,84,26.667,23.503,35.797,16.556,25.656,15.764,12631,16.093,25.656,2,-1.595,0.049,1.596,271.7,42,-2.928,1.614,2.837,0.407,46.31887004,-79.36544212,76.14,82.11,37.59,36.29,-2.16,-3.37,20.16,269,374,252,176,1460.00,0,BT,-3.644,-3.609,-3.658,-0.943
2021-06-16T18:30:50.43,85,31.530,30.252,37.286,16.655,28.953,16.087,12726,16.444,28.953,2,-3.817,1.457,4.085,290.9,48,-2.880,1.563,2.805,0.385,46.31887147,-79.36541715,73.56,82.16,40.87,35.43,-0.02,-0.96,20.16,239,296,229,182,1460.00,0,BT,-3.684,-3.676,-3.686,-0.953
2021-06-16T18:30:51.43,86,27.362,25.873,38.378,16.060,26.947,16.384,12595,16.758,26.947,2,-3.937,1.280,4.139,288.0,45,-3.012,1.371,2.844,0.458,46.31887492,-79.36537931,70.09,82.13,44.18,32.26,-0.49,-1.24,20.17,219,223,200,291,1460.00,0,BT,-3.713,-3.710,-3.720,-0.974
2021-06-16T18:30:52.43,87,50.287,26.270,26.171,15.167,29.547,16.638,13139,17.089,29.547,2,-3.875,0.935,3.986,283.6,49,-2.966,1.168,2.806,0.627,46.31887472,-79.36534885,66.43,79.36,47.37,29.18,1.57,-0.36,20.16,552,232,230,165,1460.00,0,BT,-3.613,-3.686,-3.686,-1.009
2021-06-16T18:30:53.43,88,52.879,26.469,32.721,28.454,35.170,16.835,12715,17.310,35.170,2,-2.263,0.450,2.308,281.2,60,-0.029,0.112,2.763,0.814,46.31888029,-79.36531144,63.40,75.50,47.48,27.16,1.37,-0.80,20.17,211,215,203,282,1460.00,0,BT,-3.729,-3.729,-3.730,-3.725
2021-06-16T18:30:54.43,89,48.115,26.469,35.103,28.553,34.558,17.089,13199,17.558,34.558,2,-0.720,-0.195,0.746,254.8,59,-0.036,0.012,2.714,0.985,46.31889130,-79.36527526,61.02,71.69,47.52,27.30,0.08,-0.53,20.16,232,224,236,233,1460.00,0,BT,-3.677,-3.672,-3.680,-3.672
2021-06-16T18:30:55.43,90,52.977,26.965,26.866,28.454,33.820,0.600,12385,17.840,33.820,2,-0.756,-0.284,0.808,249.4,57,-0.036,0.021,2.675,1.138,46.31890106,-79.36524260,59.17,67.92,47.56,25.49,0.17,-0.66,20.16,246,229,241,247,1460.00,0,BT,-3.668,-3.663,-3.668,-3.669
2021-06-16T18:30:56.43,91,53.176,27.164,26.866,28.950,34.044,17.648,12735,18.119,34.044,2,-0.731,-0.293,0.788,248.2,58,-0.036,0.032,2.601,1.227,46.31891015,-79.36520612,57.43,65.16,47.61,23.35,0.24,-0.87,20.15,253,274,266,249,1460.00,0,BT,-3.682,-3.663,-3.677,-3.680
2021-06-16T18:30:57.43,92,44.641,27.164,27.362,28.851,32.015,17.948,12668,18.374,32.015,2,-0.790,-0.338,0.859,246.8,54,-0.053,0.018,2.558,1.275,46.31892018,-79.36517324,55.45,64.00,47.67,21.64,0.51,-0.80,20.15,227,255,247,250,1460.00,0,BT,-3.633,-3.656,-3.656,-3.657
2021-06-16T18:30:58.43,93,51.577,27.561,27.759,29.843,34.205,18.203,12838,18.636,34.205,2,-0.700,-0.323,0.771,245.2,58,-0.003,0.032,2.529,1.377,46.31893164,-79.36514311,52.88,62.79,47.70,20.45,0.44,-0.12,20.15,251,246,243,242,1460.00,0,BT,-3.679,-3.679,-3.679,-3.680
2021-06-16T18:30:59.43,94,53.771,27.958,27.958,29.247,34.813,0.600,12352,18.891,34.813,2,-0.619,-0.253,0.669,247.7,59,0.025,0.132,2.493,1.436,46.31894457,-79.36511079,49.88,60.67,47.83,18.23,1.85,0.19,20.15,257,253,252,250,1460.00,0,BT,-3.685,-3.684,-3.683,-3.684
2021-06-16T18:31:00.43,95,58.435,28.156,27.858,29.049,35.981,18.717,12630,19.132,35.981,2,-0.589,-0.252,0.640,246.8,61,0.054,0.152,2.446,1.562,46.31895082,-79.36508151,46.53,59.28,47.99,14.20,2.14,0.68,20.14,200,201,196,202,1460.00,0,BT,-3.715,-3.714,-3.715,-3.715
2021-06-16T18:31:01.43,96,48.313,28.057,27.958,29.346,33.487,18.927,12595,19.270,33.487,2,-0.541,-0.286,0.612,242.1,57,0.123,0.167,2.329,1.673,46.31896256,-79.36505332,43.70,55.72,48.20,13.29,2.69,1.36,20.14,273,271,260,258,1460.00,0,BT,-3.652,-3.651,-3.673,-3.676
2021-06-16T18:31:02.43,97,53.374,27.958,28.553,29.446,34.861,19.095,12623,19.422,34.861,2,-0.539,-0.384,0.662,234.5,59,-0.014,0.041,2.187,1.823,46.31898407,-79.36501756,41.42,51.84,48.24,13.18,0.61,-0.16,20.14,231,227,217,220,1460.00,0,BT,-3.683,-3.685,-3.684,-3.685
2021-06-16T18:31:03.43,98,53.374,28.553,28.851,29.943,35.061,19.211,12661,19.510,35.061,2,-0.671,-0.546,0.865,230.8,59,-0.181,-0.112,2.125,1.913,46.31900675,-79.36497965,39.50,48.71,48.46,7.28,-1.30,-2.67,20.14,230,226,230,225,1460.00,0,BT,-3.734,-3.733,-3.735,-3.734
2021-06-16T18:31:04.43,99,53.374,28.454,19.137,29.943,32.775,19.328,12702,19.619,32.775,2,-1.036,1.989,2.243,332.5,55,-0.700,5.255,2.059,1.983,46.31901702,-79.36496022,37.73,47.18,53.76,10.33,0.78,-0.58,20.14,215,213,105,214,1460.00,0,BT,-3.718,-3.718,0.730,-3.718
2021-06-16T18:31:05.43,100,49.890,32.335,29.149,29.943,35.348,19.332,13002,19.714,35.348,2,-0.870,2.127,2.298,337.8,60,0.005,0.084,1.994,2.079,46.31903580,-79.36493647,36.24,44.39,53.84,9.29,0.48,-0.02,20.14,271,285,286,302,1460.00,0,BT,-3.744,-3.691,-3.703,-3.707
2021-06-16T18:31:06.43,101,53.374,28.652,28.950,31.431,35.594,19.388,13065,19.775,35.594,2,-0.530,-0.537,0.754,224.6,60,-0.048,-0.006,1.900,2.162,46.31905611,-79.36490817,34.54,42.69,53.89,7.98,0.00,-0.76,20.13,252,232,231,244,1460.00,0,BT,-3.724,-3.723,-3.722,-3.728
2021-06-16T18:31:07.43,102,55.249,28.851,30.438,30.637,36.319,19.482,12847,19.846,36.319,2,-0.515,-0.589,0.782,221.2,62,-0.027,-0.077,1.938,2.162,46.31907324,-79.36488300,32.93,41.66,53.97,6.49,0.64,-0.60,20.14,621,232,233,229,1460.00,0,BT,-3.591,-3.688,-3.688,-3.688
2021-06-16T18:31:08.43,103,53.573,28.752,29.247,30.141,35.414,19.481,13118,19.912,35.414,2,-0.531,-0.635,0.828,219.9,60,-0.062,-0.030,1.804,2.243,46.31909497,-79.36485811,31.05,40.14,54.04,4.42,-0.14,-0.96,20.13,218,219,219,221,1460.00,0,BT,-3.700,-3.704,-3.703,-3.705
2021-06-16T18:31:09.43,104,52.482,29.247,28.950,30.637,35.327,19.634,12891,20.058,35.327,2,-0.513,-0.601,0.790,220.5,60,-0.081,-0.008,1.854,2.196,46.31911387,-79.36483319,28.92,38.86,54.12,3.26,0.18,-1.14,20.13,235,232,224,230,1460.00,0,BT,-3.705,-3.704,-3.704,-3.704
2021-06-16T18:31:10.43,105,53.871,32.721,29.149,32.633,37.154,0.600,12375,20.160,37.154,2,-0.463,-0.540,0.711,220.6,63,-0.005,0.106,1.729,2.352,46.31913295,-79.36481428,26.43,38.80,54.23,359.18,1.45,0.40,20.13,209,231,222,393,1460.00,0,BT,-3.685,-3.688,-3.685,-3.689
2021-06-16T18:31:11.43,106,54.267,30.141,30.053,30.252,36.268,19.844,12627,20.257,36.268,2,-0.413,-0.438,0.602,223.3,62,-0.022,0.250,1.630,2.406,46.31914428,-79.36479251,24.27,34.90,54.48,359.51,2.86,1.10,20.13,220,251,336,404,1460.00,0,BT,-3.664,-3.641,-3.629,-3.633
2021-06-16T18:31:12.43,107,55.558,38.279,32.423,34.606,40.289,19.952,12740,20.343,40.289,2,-0.375,-0.339,0.506,227.9,69,-0.046,0.160,1.541,2.494,46.31916822,-79.36476912,22.38,32.81,54.64,356.47,2.34,0.42,20.12,246,278,243,247,1460.00,0,BT,-3.681,-3.688,-3.681,-3.679
2021-06-16T18:31:13.43,108,48.115,42.149,32.423,35.611,39.603,20.035,13111,20.425,39.603,2,-0.328,-0.477,0.579,214.5,68,-0.035,0.087,1.400,2.599,46.31919384,-79.36475055,21.29,30.44,54.74,358.36,1.29,0.21,20.12,255,239,273,346,1460.00,0,BT,-3.680,-3.671,-3.677,-3.660
2021-06-16T18:31:14.43,109,NaN,NaN,NaN,NaN,0.000,20.124,12715,20.577,39.603,1,0.371,0.760,0.846,26.0,68,NaN,NaN,1.354,2.602,46.31922157,-79.36473112,21.06,26.75,0.00,357.51,0.30,-0.73,20.11,0,0,0,0,1460.00,1,BT,NaN,NaN,NaN,NaN
2021-06-16T18:31:15.43,110,55.161,54.764,32.523,34.408,44.262,20.265,12639,20.726,44.262,2,0.408,0.801,0.899,27.0,76,-0.044,0.038,1.343,2.649,46.31924363,-79.36471386,20.57,26.90,0.00,357.08,0.74,-0.46,20.11,296,290,306,275,1460.00,0,BT,-3.647,-3.645,-3.647,-3.652
2021-06-16T18:31:16.43,111,54.565,54.069,30.438,32.523,42.922,0.600,12451,20.808,42.922,2,-0.275,-0.482,0.555,209.8,74,-0.004,0.057,1.301,2.665,46.31926888,-79.36470019,20.35,26.23,0.06,358.25,0.80,0.27,20.10,232,226,240,232,1460.00,0,BT,-3.633,-3.633,-3.634,-3.634
2021-06-16T18:31:17.43,112,54.565,54.168,30.438,34.408,43.425,20.492,12507,20.884,43.425,2,-0.278,-0.495,0.568,209.3,74,-0.027,0.031,1.230,2.753,46.31929240,-79.36468225,20.65,24.59,0.10,356.31,0.52,-0.17,20.10,258,258,258,258,1460.00,0,BT,-3.666,-3.666,-3.664,-3.666
2021-06-16T18:31:18.43,113,57.939,46.317,30.649,33.019,42.009,20.711,12779,21.046,42.009,2,-0.274,-0.510,0.579,208.3,72,0.027,0.058,1.327,2.681,46.31931592,-79.36466699,20.67,25.05,0.16,359.28,0.63,0.14,20.10,242,493,414,234,1460.00,0,BT,-3.653,-3.613,-3.655,-3.645
2021-06-16T18:31:19.43,114,55.161,53.970,33.416,32.423,43.796,20.813,12542,21.129,43.796,2,-0.262,-0.473,0.540,209.0,75,-0.047,0.070,1.297,2.721,46.31933897,-79.36464716,20.26,25.74,0.25,357.20,1.22,-0.22,20.10,206,212,200,201,1460.00,0,BT,-3.651,-3.650,-3.653,-3.652
2021-06-16T18:31:20.43,115,54.863,54.168,30.438,34.122,43.444,20.842,13116,21.234,43.444,2,-0.317,-0.496,0.589,212.6,74,-0.052,0.064,1.256,2.749,46.31936329,-79.36463204,19.96,24.85,0.33,354.98,1.12,0.04,20.09,253,239,243,474,1460.00,0,BT,-3.636,-3.639,-3.634,-3.619
2021-06-16T18:31:21.43,116,54.565,48.809,32.026,32.523,42.013,20.900,13528,21.259,42.013,2,-0.303,-0.506,0.590,210.9,72,-0.017,0.064,1.279,2.713,46.31938864,-79.36461645,19.90,24.61,0.40,357.72,0.81,0.03,20.09,238,268,277,234,1460.00,0,BT,-3.660,-3.653,-3.653,-3.661
2021-06-16T18:31:22.43,117,57.145,52.382,36.900,31.927,44.636,20.989,12751,21.339,44.636,2,-0.291,-0.420,0.511,214.8,77,-0.070,0.171,1.265,2.744,46.31940926,-79.36459800,19.42,24.96,0.58,356.44,2.01,0.18,20.08,235,261,271,262,1460.00,0,BT,-3.685,-3.674,-3.650,-3.672
2021-06-16T18:31:23.43,118,50.000,55.161,31.729,32.622,42.369,20.972,13176,21.338,42.369,2,-0.285,-0.467,0.548,211.4,73,0.015,0.022,1.231,2.751,46.31943880,-79.36458632,19.18,24.31,0.61,357.07,0.24,0.36,20.08,247,237,251,239,1460.00,0,BT,-3.656,-3.660,-3.658,-3.658
2021-06-16T18:31:24.43,119,NaN,NaN,NaN,NaN,0.000,21.019,13291,21.370,42.369,1,0.363,0.825,0.901,23.7,73,NaN,NaN,1.228,2.723,46.31946122,-79.36456355,18.43,24.68,0.00,355.16,1.35,-0.56,20.08,0,0,0,0,1460.00,1,BT,NaN,NaN,NaN,NaN
2021-06-16T18:31:25.43,120,57.542,51.290,35.114,34.508,44.664,0.600,12320,21.421,44.664,2,0.347,0.947,1.008,20.1,77,-0.088,0.209,1.207,2.701,46.31948821,-79.36455262,17.37,24.34,0.00,356.47,2.54,0.56,20.08,233,267,302,440,1460.00,0,BT,-3.687,-3.682,-3.648,-3.664
2021-06-16T18:31:26.43,121,47.817,54.267,33.614,37.099,43.213,21.095,12932,21.432,43.213,2,-0.278,-0.369,0.462,217.0,74,-0.046,0.121,1.146,2.764,46.31950643,-79.36453486,16.54,23.56,0.13,354.27,1.86,0.45,20.08,229,269,250,299,1460.00,0,BT,-3.659,-3.676,-3.662,-3.664
2021-06-16T18:31:27.43,122,47.111,55.062,32.920,34.606,42.484,21.109,13031,21.439,42.484,2,-0.398,-0.593,0.714,213.9,73,-0.176,-0.050,1.121,2.776,46.31953521,-79.36451542,15.87,22.41,0.31,352.09,1.25,-0.92,20.08,530,250,235,636,1460.00,0,BT,-3.657,-3.694,-3.697,-3.598
2021-06-16T18:31:28.43,123,49.989,49.305,31.134,33.416,41.000,21.113,12552,21.469,41.000,2,-0.330,-0.618,0.701,208.1,70,-0.017,-0.032,1.073,2.793,46.31956126,-79.36450412,15.44,21.23,0.35,353.17,0.65,-0.59,20.07,561,225,210,222,1460.00,0,BT,-3.615,-3.661,-3.671,-3.670
2021-06-16T18:31:29.43,124,49.294,47.211,32.721,33.427,40.703,21.114,12977,21.464,40.703,2,-0.297,-0.655,0.720,204.4,70,-0.118,-0.098,1.062,2.781,46.31958828,-79.36448712,14.91,21.20,0.50,353.07,0.40,-1.42,20.08,576,267,263,411,1460.00,0,BT,-3.618,-3.679,-3.663,-3.636
2021-06-16T18:31:30.43,125,53.970,50.894,39.867,35.202,44.998,21.124,12891,21.475,44.998,2,-0.277,-0.600,0.661,204.8,77,-0.052,-0.067,0.989,2.777,46.31961516,-79.36447681,14.44,20.03,0.59,352.86,-0.41,-1.18,20.07,235,245,260,244,1460.00,0,BT,-3.665,-3.661,-3.666,-3.665
2021-06-16T18:31:31.43,126,47.806,54.665,31.331,32.225,41.558,21.109,13337,21.490,41.558,2,-0.255,-0.587,0.640,203.5,71,-0.055,-0.008,1.029,2.779,46.31963621,-79.36446224,13.78,20.40,0.64,352.91,0.68,-0.78,20.06,439,246,231,224,1460.00,0,BT,-3.617,-3.636,-3.639,-3.640
2021-06-16T18:31:32.43,127,54.962,57.443,31.431,34.408,44.609,21.116,13060,21.509,44.609,2,-0.254,-0.533,0.590,205.5,77,-0.083,-0.002,0.975,2.814,46.31966262,-79.36444948,12.95,19.93,0.73,351.73,0.23,-0.92,20.06,232,248,289,281,1460.00,0,BT,-3.647,-3.652,-3.624,-3.646
2021-06-16T18:31:33.43,128,55.856,49.305,31.530,32.523,42.344,21.150,13058,21.509,42.344,2,-0.273,-0.594,0.654,204.7,73,-0.102,-0.052,0.958,2.819,46.31968943,-79.36443464,12.22,18.58,0.84,349.90,0.04,-1.66,20.06,226,245,250,242,1460.00,0,BT,-3.656,-3.646,-3.649,-3.648
2021-06-16T18:31:34.43,129,54.962,55.756,31.530,33.416,43.958,21.140,13430,21.532,43.958,2,-0.218,-0.556,0.597,201.4,75,-0.047,0.017,0.875,2.822,46.31971093,-79.36442618,11.37,18.10,0.89,350.06,0.54,-0.42,20.05,231,225,240,223,1460.00,0,BT,-3.689,-3.687,-3.687,-3.687
2021-06-16T18:31:35.43,130,54.962,54.764,31.431,32.423,43.420,21.149,13263,21.496,43.420,2,-0.227,-0.611,0.651,200.4,74,-0.065,-0.092,0.764,2.843,46.31974122,-79.36441399,10.96,16.24,1.00,346.87,-0.54,-1.50,20.05,252,252,258,263,1460.00,0,BT,-3.690,-3.690,-3.691,-3.691
2021-06-16T18:31:36.43,131,47.917,54.267,50.585,33.217,46.533,21.152,13036,21.513,46.533,2,-0.234,-0.564,0.611,202.5,80,-0.110,0.024,0.770,2.846,46.31976452,-79.36440494,10.74,14.96,1.12,349.01,-0.12,-1.02,20.04,256,244,611,250,1460.00,0,BT,-3.688,-3.691,-3.611,-3.687
2021-06-16T18:31:37.43,132,55.062,54.367,54.466,33.912,49.501,0.600,12422,21.520,49.501,2,-0.234,-0.525,0.575,204.0,85,-0.093,-0.076,0.869,2.835,46.31978805,-79.36439794,10.46,15.73,1.24,346.93,-0.06,-1.71,20.04,286,271,276,275,1460.00,0,BT,-3.691,-3.691,-3.695,-3.693
2021-06-16T18:31:38.43,133,54.565,54.367,54.168,35.699,49.733,21.198,12935,21.541,49.733,2,-0.213,-0.539,0.579,201.5,86,-0.072,-0.041,0.755,2.869,46.31981471,-79.36438179,9.14,16.74,1.32,346.24,0.17,-1.16,20.03,247,240,238,245,1460.00,0,BT,-3.690,-3.693,-3.692,-3.692
2021-06-16T18:31:39.43,134,55.062,54.764,47.607,32.323,47.493,21.227,12865,21.586,47.493,2,-0.246,-0.590,0.639,202.7,82,-0.159,-0.064,0.782,2.901,46.31984249,-79.36437086,8.38,14.32,1.49,345.54,-0.13,-1.68,20.03,273,258,542,522,1460.00,0,BT,-3.704,-3.704,-3.660,-3.664
2021-06-16T18:31:40.43,135,57.840,59.031,55.161,34.111,51.577,21.233,13373,21.581,51.577,2,-0.224,-0.542,0.586,202.5,89,-0.056,-0.024,0.653,2.895,46.31986578,-79.36436307,7.46,14.15,1.55,349.00,0.23,-0.93,20.03,227,249,231,257,1460.00,0,BT,-3.728,-3.721,-3.729,-3.728
2021-06-16T18:31:41.43,136,58.932,62.306,50.596,35.611,51.911,21.247,13449,21.562,51.911,2,-0.205,-0.641,0.673,197.8,90,-0.099,-0.152,0.578,2.904,46.31989829,-79.36435421,7.08,11.95,1.73,346.81,-1.20,-2.25,20.03,267,490,274,399,1460.00,0,BT,-3.707,-3.672,-3.685,-3.662
2021-06-16T18:31:42.43,137,54.168,53.275,55.459,37.397,50.108,21.234,14055,21.544,50.108,2,-0.225,-0.664,0.701,198.7,86,-0.120,-0.142,0.621,2.908,46.31992190,-79.36434563,6.74,11.83,1.92,345.17,-0.47,-1.82,20.02,277,265,240,303,1460.00,0,BT,-3.693,-3.691,-3.696,-3.646
2021-06-16T18:31:43.43,138,48.997,55.856,62.703,33.229,50.249,21.242,13366,21.559,50.249,2,-0.199,-0.624,0.655,197.7,87,-0.061,-0.094,0.573,2.901,46.31994619,-79.36434011,6.79,11.38,2.03,347.48,-0.35,-1.20,20.02,552,234,532,378,1460.00,0,BT,-3.607,-3.675,-3.616,-3.657
2021-06-16T18:31:44.43,139,44.829,57.443,55.657,33.030,47.812,21.238,13753,21.555,47.812,2,-0.201,-0.640,0.671,197.5,82,-0.110,-0.110,0.614,2.854,46.31997322,-79.36433004,6.46,10.99,2.19,344.75,-0.26,-1.85,20.02,251,227,228,419,1460.00,0,BT,-3.653,-3.655,-3.653,-3.634
2021-06-16T18:31:45.43,140,35.103,62.504,62.604,34.508,48.703,21.262,13805,21.565,48.703,2,-0.215,-0.546,0.587,201.5,84,-0.087,0.047,0.667,2.857,46.31999537,-79.36432160,5.60,12.41,2.28,344.59,0.57,-1.19,20.02,248,455,455,241,1460.00,0,BT,-3.688,-3.646,-3.644,-3.686
2021-06-16T18:31:46.43,141,34.717,62.604,60.619,36.900,48.737,21.248,14315,21.578,48.737,2,-0.194,-0.564,0.597,199.0,84,-0.086,-0.145,0.542,2.913,46.32002135,-79.36431471,4.74,12.06,2.45,344.06,0.34,-1.03,20.02,341,233,249,366,1460.00,0,BT,-3.670,-3.737,-3.737,-3.665
2021-06-16T18:31:47.43,142,38.885,62.107,67.863,33.229,50.529,21.240,14399,21.528,50.529,2,-0.206,-0.563,0.600,200.1,87,-0.138,0.033,0.491,2.913,46.32004657,-79.36430661,4.39,9.97,2.59,343.00,0.72,-1.08,20.01,273,456,597,551,1460.00,0,BT,-3.665,-3.668,-3.611,-3.662
2021-06-16T18:31:48.43,143,42.744,48.500,57.840,32.633,45.431,21.218,13054,21.510,45.431,2,-0.204,-0.595,0.629,198.9,78,-0.108,-0.064,0.436,2.937,46.32007265,-79.36430350,4.51,8.28,2.72,346.25,0.48,-0.63,20.02,286,359,249,516,1460.00,0,BT,-3.724,-3.733,-3.735,-3.667
2021-06-16T18:31:49.43,144,44.134,49.691,52.282,33.526,44.925,21.164,13455,21.479,44.925,2,-0.185,-0.615,0.642,196.8,77,-0.046,-0.031,0.498,2.950,46.32010022,-79.36429688,4.87,8.58,2.78,343.99,0.42,-0.93,20.01,455,584,209,377,1460.00,0,BT,-3.666,-3.634,-3.685,-3.642
2021-06-16T18:31:50.43,145,33.515,45.226,54.367,33.328,41.591,21.168,13814,21.490,41.591,2,-0.176,-0.640,0.663,195.4,71,-0.086,-0.015,0.502,2.925,46.32012527,-79.36429113,4.38,9.66,2.86,346.40,0.62,-0.51,20.01,230,220,235,414,1460.00,0,BT,-3.724,-3.714,-3.724,-3.681
2021-06-16T18:31:51.43,146,32.721,54.466,58.138,33.328,44.623,21.150,13916,21.474,44.623,2,-0.215,-0.600,0.638,199.7,77,-0.155,-0.048,0.518,2.939,46.32015063,-79.36428050,3.46,10.21,3.03,339.68,1.24,-0.95,20.02,302,233,229,362,1460.00,0,BT,-3.634,-3.647,-3.650,-3.578
2021-06-16T18:31:52.43,147,33.626,56.650,51.676,32.832,43.718,21.147,14000,21.450,43.718,2,-0.224,-0.668,0.705,198.5,75,-0.086,-0.100,0.436,2.937,46.32017892,-79.36427609,2.58,8.65,3.16,340.40,0.56,-1.10,20.02,374,209,279,472,1460.00,0,BT,-3.634,-3.675,-3.680,-3.630
2021-06-16T18:31:53.43,148,33.427,62.405,48.004,34.023,44.411,21.122,14384,21.450,44.411,2,-0.166,-0.582,0.605,195.9,76,-0.069,0.112,0.390,2.904,46.32020053,-79.36427210,1.86,7.98,3.29,344.89,1.33,0.05,20.02,444,565,578,443,1460.00,0,BT,-3.631,-3.608,-3.601,-3.627
2021-06-16T18:31:54.43,149,32.732,62.703,48.004,33.526,44.290,21.120,13448,21.410,44.290,2,-0.148,-0.593,0.611,194.0,76,-0.081,-0.131,0.190,2.957,46.32023219,-79.36426583,1.40,6.78,3.44,338.69,0.43,-1.24,20.02,385,254,255,474,1460.00,0,BT,-3.628,-3.680,-3.687,-3.628
2021-06-16T18:31:55.43,150,33.427,62.703,48.302,32.832,44.396,21.087,13866,21.414,44.396,2,-0.095,-0.664,0.670,188.1,76,-0.021,-0.119,0.336,2.937,46.32026093,-79.36426394,2.19,4.96,3.57,341.04,-0.19,-1.47,20.02,449,499,227,462,1460.00,0,BT,-3.637,-3.640,-3.688,-3.646
2021-06-16T18:31:56.43,151,33.129,64.985,48.302,33.427,45.013,21.078,14413,21.419,45.013,2,-0.080,-0.617,0.622,187.3,77,0.006,-0.027,0.362,2.920,46.32028499,-79.36426097,2.18,6.66,3.59,341.76,0.00,-0.90,20.02,406,550,232,370,1460.00,0,BT,-3.626,-3.578,-3.646,-3.620
2021-06-16T18:31:57.43,152,33.328,64.291,48.500,38.687,46.161,21.109,13270,21.443,46.161,2,-0.092,-0.522,0.530,190.0,79,-0.041,0.048,0.336,2.929,46.32030736,-79.36425508,1.91,6.09,3.66,342.64,1.26,-0.19,20.02,461,643,611,315,1460.00,0,BT,-3.587,-3.588,-3.607,-3.602
2021-06-16T18:31:58.43,153,32.832,62.803,47.607,32.732,43.977,21.092,14180,21.435,43.977,2,-0.140,-0.548,0.565,194.4,75,-0.075,-0.016,0.318,3.005,46.32033509,-79.36425049,1.32,6.67,3.73,340.85,1.03,-0.36,20.02,385,241,228,361,1460.00,0,BT,-3.647,-3.676,-3.675,-3.643
2021-06-16T18:31:59.43,154,32.931,62.901,48.699,32.832,44.428,21.104,14212,21.430,44.428,2,-0.141,-0.615,0.631,192.9,76,-0.059,-0.073,0.348,2.931,46.32036725,-79.36424694,0.75,6.34,3.83,335.84,-0.38,-1.48,20.02,396,559,559,391,1460.00,0,BT,-3.646,-3.632,-3.633,-3.641
2021-06-16T18:32:00.43,155,32.931,63.199,48.401,33.229,44.458,21.088,14430,21.454,44.458,2,-0.134,-0.622,0.637,192.2,76,-0.067,-0.006,0.232,2.925,46.32038902,-79.36424185,0.35,5.61,3.89,342.26,0.71,-0.79,20.02,338,484,483,377,1460.00,0,BT,-3.654,-3.654,-3.659,-3.657
2021-06-16T18:32:01.43,156,33.626,63.100,48.103,33.725,44.691,21.109,13989,21.485,44.691,2,-0.094,-0.598,0.605,188.9,77,-0.008,-0.052,0.259,2.947,46.32041763,-79.36424043,0.15,4.55,3.95,342.86,0.01,-0.99,20.02,352,505,235,366,1460.00,0,BT,-3.695,-3.668,-3.722,-3.692
2021-06-16T18:32:02.43,157,33.129,63.000,48.699,33.030,44.574,21.117,13990,21.449,44.574,2,-0.122,-0.785,0.794,188.8,77,-0.069,-0.208,0.207,2.975,46.32044814,-79.36423587,359.97,4.89,4.16,336.57,-0.60,-1.95,20.02,379,267,251,362,1460.00,0,BT,-3.627,-3.673,-3.675,-3.623
2021-06-16T18:32:03.43,158,34.717,60.917,48.500,32.832,44.305,21.120,13880,21.471,44.305,2,-0.109,-0.796,0.803,187.8,76,-0.027,-0.211,0.178,2.902,46.32047171,-79.36423538,359.96,2.94,4.38,339.10,-0.24,-1.16,20.02,403,452,235,405,1460.00,0,BT,-3.578,-3.648,-3.674,-3.574
2021-06-16T18:32:04.43,159,35.412,62.306,48.302,33.824,45.045,21.146,13366,21.472,45.045,2,-0.086,-0.762,0.767,186.4,77,-0.028,-0.136,0.245,2.934,46.32049946,-79.36423114,359.48,4.52,4.52,338.83,-0.36,-1.61,20.02,304,457,210,389,1460.00,0,BT,-3.661,-3.664,-3.703,-3.661
2021-06-16T18:32:05.43,160,33.626,62.504,48.302,33.725,44.623,21.145,13415,21.515,44.623,2,-0.085,-0.725,0.730,186.6,77,-0.024,-0.163,0.162,2.927,46.32052629,-79.36423144,358.87,3.94,4.68,339.92,-0.89,-1.24,20.02,371,470,474,424,1460.00,0,BT,-3.601,-3.632,-3.629,-3.591
2021-06-16T18:32:06.43,161,33.030,61.512,48.302,33.229,44.157,21.208,13752,21.528,44.157,2,-0.071,-0.811,0.814,185.0,76,-0.024,-0.293,0.207,2.956,46.32055815,-79.36422814,358.34,3.13,4.98,338.32,-1.86,-2.60,20.02,513,226,250,414,1460.00,0,BT,-3.625,-3.669,-3.670,-3.629
2021-06-16T18:32:07.43,162,32.633,63.100,48.500,33.328,44.524,21.232,13559,21.546,44.524,2,-0.089,-0.847,0.852,186.0,76,-0.076,-0.229,0.182,2.964,46.32058220,-79.36422197,357.67,4.52,5.22,337.39,-0.92,-2.53,20.02,401,528,527,365,1460.00,0,BT,-3.626,-3.655,-3.656,-3.619
2021-06-16T18:32:08.43,163,33.328,57.542,46.317,33.229,42.666,21.230,13729,21.589,42.666,2,-0.082,-0.812,0.816,185.8,73,-0.026,-0.144,0.066,2.955,46.32060448,-79.36422381,357.39,2.16,5.36,340.08,-0.59,-1.15,20.02,431,244,247,456,1460.00,0,BT,-3.645,-3.676,-3.676,-3.639
2021-06-16T18:32:09.43,164,33.129,62.008,48.997,32.832,44.270,21.243,13775,21.612,44.270,2,-0.066,-0.573,0.576,186.6,76,-0.059,-0.002,0.104,2.988,46.32062836,-79.36422134,357.26,1.87,5.42,340.02,0.20,-0.64,20.02,426,475,522,389,1460.00,0,BT,-3.661,-3.655,-3.636,-3.659
2021-06-16T18:32:10.43,165,32.732,58.535,50.088,33.427,43.711,21.285,14270,21.636,43.711,2,-0.045,-0.660,0.662,183.9,75,-0.025,-0.088,0.051,2.985,46.32065481,-79.36422014,357.20,1.13,5.51,338.27,0.35,-0.60,20.02,415,278,233,388,1460.00,0,BT,-3.618,-3.655,-3.673,-3.621
2021-06-16T18:32:11.43,166,32.732,60.520,48.600,33.725,43.901,21.294,14334,21.656,43.901,2,-0.068,-0.647,0.651,186.0,75,-0.075,0.040,0.070,2.966,46.32068085,-79.36421954,357.15,1.43,5.60,340.48,0.41,-0.42,20.02,358,491,665,411,1460.00,0,BT,-3.625,-3.622,-3.579,-3.629
2021-06-16T18:32:12.43,167,32.435,63.597,49.394,33.526,44.865,21.328,14083,21.666,44.865,2,-0.076,-0.623,0.627,186.9,77,-0.050,-0.101,0.038,2.987,46.32071526,-79.36421919,357.02,1.13,5.71,338.86,-1.17,-2.03,20.02,431,586,586,440,1460.00,0,BT,-3.630,-3.588,-3.587,-3.616
2021-06-16T18:32:13.43,168,32.534,58.635,49.592,32.038,43.295,21.355,14030,21.690,43.295,2,-0.066,-0.666,0.670,185.6,74,-0.057,-0.040,0.083,2.989,46.32074045,-79.36422052,356.82,1.23,5.78,339.74,-1.21,-1.40,20.02,449,247,542,488,1460.00,0,BT,-3.614,-3.597,-3.530,-3.621
2021-06-16T18:32:14.43,169,32.931,63.695,49.592,33.923,45.178,21.394,14116,21.739,45.178,2,-0.034,-0.670,0.671,182.9,78,0.019,-0.237,0.013,2.985,46.32077070,-79.36421819,356.84,0.17,6.02,337.01,-1.53,-2.44,20.01,371,621,251,399,1460.00,0,BT,-3.603,-3.593,-3.658,-3.598
2021-06-16T18:32:15.43,170,32.931,62.107,49.592,33.427,44.645,21.417,14181,21.786,44.645,2,-0.019,-0.799,0.800,181.4,77,-0.046,-0.225,-0.009,3.003,46.32079671,-79.36421711,356.99,0.13,6.25,337.29,-1.19,-2.37,20.01,469,236,239,430,1460.00,0,BT,-3.617,-3.644,-3.645,-3.617
2021-06-16T18:32:16.43,171,33.923,63.894,49.493,33.824,45.362,21.442,14334,21.841,45.362,2,-0.098,-0.596,0.604,189.3,78,-0.095,-0.078,0.020,3.018,46.32081883,-79.36421352,357.29,359.82,6.37,340.69,0.32,-1.85,20.02,380,582,566,393,1460.00,0,BT,-3.568,-3.563,-3.571,-3.567
2021-06-16T18:32:17.43,172,33.229,63.695,49.989,33.824,45.318,21.503,14250,21.866,45.318,2,-0.043,-0.712,0.713,183.4,78,0.004,-0.237,0.065,3.028,46.32085097,-79.36421850,357.49,0.90,6.61,338.11,-1.49,-2.14,20.02,406,502,400,453,1460.00,0,BT,-3.577,-3.593,-3.627,-3.573
2021-06-16T18:32:18.43,173,33.824,62.504,49.791,34.221,45.202,21.538,13782,21.896,45.202,2,-0.042,-0.755,0.756,183.2,78,-0.061,-0.159,0.069,2.992,46.32087667,-79.36421585,357.71,1.13,6.78,339.50,-0.96,-2.14,20.01,424,513,545,412,1460.00,0,BT,-3.583,-3.592,-3.580,-3.583
2021-06-16T18:32:19.43,174,33.526,63.597,48.897,34.618,45.269,21.622,13695,21.944,45.269,2,-0.079,-0.767,0.771,185.9,78,-0.050,-0.227,0.093,2.981,46.32090309,-79.36421550,358.07,1.07,7.01,340.39,-0.86,-1.93,20.02,528,241,246,647,1460.00,0,BT,-3.574,-3.623,-3.623,-3.567
2021-06-16T18:32:20.43,175,49.294,64.291,49.294,35.809,49.705,21.685,13263,22.039,49.705,2,-0.024,-0.678,0.678,182.0,86,0.052,-0.103,0.075,2.977,46.32092707,-79.36421838,358.06,1.60,7.13,341.92,-0.85,-0.74,20.01,626,623,620,493,1460.00,0,BT,-3.522,-3.555,-3.564,-3.564
2021-06-16T18:32:21.43,176,50.386,63.397,49.394,34.717,49.533,21.731,13474,22.146,49.533,2,0.021,-0.594,0.595,177.9,85,0.040,-0.059,0.123,2.978,46.32095441,-79.36421420,357.89,1.68,7.20,340.01,-0.54,-1.30,20.01,546,494,485,501,1460.00,0,BT,-3.518,-3.541,-3.546,-3.602
2021-06-16T18:32:22.43,177,49.194,64.291,48.897,36.900,49.895,21.809,13202,22.269,49.895,2,0.009,-0.612,0.612,179.2,86,-0.012,-0.143,0.080,2.933,46.32098507,-79.36421211,357.44,2.02,7.34,337.06,-1.23,-2.24,20.02,547,572,540,374,1460.00,0,BT,-3.566,-3.558,-3.569,-3.592
2021-06-16T18:32:23.43,178,50.683,56.252,49.592,35.312,48.003,21.911,13435,22.364,48.003,2,-0.118,-0.722,0.732,189.3,83,-0.092,-0.204,0.092,2.959,46.32100958,-79.36421177,357.15,1.60,7.56,337.25,-0.97,-1.72,20.02,230,288,226,439,1460.00,0,BT,-3.629,-3.619,-3.630,-3.540
2021-06-16T18:32:24.43,179,50.287,52.282,47.111,37.199,46.732,21.995,13364,22.502,46.732,2,-0.077,-0.734,0.738,186.0,80,-0.022,-0.186,-0.031,2.957,46.32103795,-79.36421155,357.18,0.50,7.75,338.34,-1.30,-2.05,20.02,585,250,538,370,1460.00,0,BT,-3.557,-3.611,-3.573,-3.601
2021-06-16T18:32:25.43,180,58.038,48.997,49.890,37.199,48.458,22.098,13661,22.590,48.458,2,-0.053,-0.721,0.723,184.2,84,-0.052,-0.228,0.031,3.012,46.32107048,-79.36421004,357.67,359.92,7.99,337.46,-2.12,-3.41,20.02,271,498,455,384,1460.00,0,BT,-3.627,-3.588,-3.601,-3.616
2021-06-16T18:32:26.43,181,54.951,50.187,49.791,42.259,49.256,22.269,12913,22.796,49.256,2,-0.036,-0.756,0.757,182.7,85,0.002,-0.225,0.038,2.920,46.32109350,-79.36421097,358.04,0.44,8.21,340.07,-1.58,-2.47,20.02,651,560,554,345,1460.00,0,BT,-3.581,-3.620,-3.619,-3.627
2021-06-16T18:32:27.43,182,51.577,49.493,50.287,50.386,50.360,22.484,12797,23.005,50.360,2,-0.048,-0.735,0.736,183.7,87,-0.055,-0.195,0.081,2.893,46.32111935,-79.36420847,358.08,1.12,8.41,336.17,-1.29,-2.66,20.02,229,234,232,261,1460.00,0,BT,-3.629,-3.628,-3.632,-3.633
2021-06-16T18:32:28.43,183,56.848,50.783,51.279,51.379,52.512,22.718,13330,23.263,52.512,2,-0.113,-0.654,0.664,189.8,91,-0.128,-0.103,0.072,2.919,46.32114385,-79.36420763,357.54,1.72,8.58,339.77,-0.97,-2.20,20.02,245,617,613,625,1460.00,0,BT,-3.666,-3.590,-3.588,-3.581
2021-06-16T18:32:29.43,184,63.497,51.080,51.676,47.309,53.289,22.932,13655,23.429,53.289,2,-0.108,-0.643,0.652,189.6,92,-0.050,-0.194,0.037,3.033,46.32117398,-79.36420599,357.03,1.68,8.78,337.31,-1.51,-2.91,20.02,503,518,542,475,1460.00,0,BT,-3.606,-3.596,-3.596,-3.616
2021-06-16T18:32:30.43,185,63.695,49.691,51.379,57.145,55.437,23.200,13295,23.728,55.437,2,-0.016,-0.479,0.479,181.9,96,0.001,-0.022,-0.026,3.008,46.32119339,-79.36420696,356.73,0.71,8.80,343.17,-0.36,-1.19,20.02,519,525,516,252,1460.00,0,BT,-3.561,-3.561,-3.553,-3.617
2021-06-16T18:32:31.43,186,60.520,50.187,51.874,61.909,56.046,23.430,13082,23.944,56.046,2,-0.053,-0.529,0.532,185.8,97,-0.068,-0.111,0.050,2.979,46.32122146,-79.36420419,356.61,0.08,8.93,335.79,-0.25,-1.82,20.02,254,244,233,240,1460.00,0,BT,-3.635,-3.639,-3.639,-3.638
2021-06-16T18:32:32.43,187,56.153,49.989,49.791,63.695,54.836,23.717,13328,24.202,54.836,2,-0.079,-0.581,0.586,187.8,95,-0.065,-0.095,0.061,2.944,46.32124764,-79.36420427,356.49,0.88,9.05,339.30,-0.26,-1.62,20.01,249,557,245,560,1460.00,0,BT,-3.663,-3.593,-3.659,-3.592
2021-06-16T18:32:33.43,188,57.047,56.153,52.271,57.840,55.815,23.920,13129,24.388,55.815,2,-0.103,-0.509,0.520,191.4,97,-0.133,0.012,-0.020,2.896,46.32127152,-79.36420486,356.50,359.83,9.18,341.54,0.08,-1.09,20.02,258,262,634,257,1460.00,0,BT,-3.664,-3.665,-3.578,-3.663
2021-06-16T18:32:34.43,189,57.642,50.982,50.982,57.542,54.234,24.191,12901,24.548,54.234,2,-0.102,-0.466,0.477,192.4,94,-0.061,0.012,-0.016,2.952,46.32130014,-79.36420298,356.77,359.71,9.24,339.23,-0.06,-1.82,20.02,250,665,563,257,1460.00,0,BT,-3.647,-3.565,-3.598,-3.646
2021-06-16T18:32:35.43,190,61.810,50.088,49.107,57.939,54.723,24.353,13316,24.701,54.723,2,-0.081,-0.454,0.461,190.1,95,-0.097,-0.002,-0.052,2.968,46.32132341,-79.36420565,357.18,359.38,9.34,343.21,0.28,-0.85,20.02,250,253,296,285,1460.00,0,BT,-3.645,-3.642,-3.601,-3.636
2021-06-16T18:32:36.43,191,65.879,51.974,46.218,57.939,55.457,24.412,13187,24.909,55.457,2,-0.006,-0.488,0.488,180.7,96,0.093,-0.054,-0.005,2.961,46.32135255,-79.36420755,357.46,0.01,9.45,342.39,-0.46,-1.17,20.02,608,592,521,248,1460.00,0,BT,-3.551,-3.566,-3.613,-3.654
2021-06-16T18:32:37.43,192,58.535,51.080,37.683,57.939,51.180,24.540,13009,25.065,51.180,2,0.015,-0.584,0.584,178.5,88,0.034,-0.099,0.055,2.989,46.32138399,-79.36420733,357.37,0.72,9.55,337.01,-1.31,-2.02,20.02,255,600,247,249,1460.00,0,BT,-3.664,-3.586,-3.663,-3.663
2021-06-16T18:32:38.43,193,68.559,52.570,35.500,57.741,53.565,24.740,12804,25.155,53.565,2,0.083,-0.540,0.546,171.3,93,0.158,-0.048,0.094,2.931,46.32140521,-79.36420221,356.95,1.57,9.72,338.53,0.11,-1.51,20.03,563,569,294,273,1460.00,0,BT,-3.528,-3.515,-3.661,-3.662
2021-06-16T18:32:39.43,194,53.275,55.062,35.797,57.244,50.292,24.845,12620,25.229,50.292,2,0.049,-0.598,0.600,175.3,87,-0.045,-0.119,0.069,2.956,46.32143369,-79.36420414,356.64,1.21,9.84,336.51,-0.64,-1.60,20.02,239,232,224,220,1460.00,0,BT,-3.658,-3.661,-3.658,-3.656
2021-06-16T18:32:40.43,195,60.321,55.756,34.706,56.848,51.829,24.947,12812,25.382,51.829,2,-0.076,-0.646,0.651,186.7,90,-0.102,-0.141,0.062,2.951,46.32146247,-79.36419908,356.75,0.33,10.02,337.59,-0.37,-2.58,20.02,257,286,278,263,1460.00,0,BT,-3.652,-3.645,-3.645,-3.652
2021-06-16T18:32:41.43,196,56.650,51.389,35.797,58.535,50.474,25.090,12873,25.474,50.474,2,-0.063,-0.677,0.680,185.3,87,-0.026,-0.146,-0.056,2.998,46.32148965,-79.36420377,357.23,359.76,10.16,336.67,-1.04,-2.14,20.03,282,263,278,261,1460.00,0,BT,-3.624,-3.610,-3.630,-3.630
2021-06-16T18:32:42.43,197,57.642,50.199,43.748,57.047,52.065,25.224,13010,25.572,52.065,2,-0.032,-0.607,0.608,183.0,90,-0.032,-0.068,-0.012,2.976,46.32151585,-79.36420825,358.03,359.59,10.24,340.42,-1.41,-1.48,20.03,240,332,331,227,1460.00,0,BT,-3.715,-3.688,-3.650,-3.716
2021-06-16T18:32:43.43,198,52.482,51.290,35.400,56.748,48.859,25.240,13152,25.637,48.859,2,-0.080,-0.661,0.666,186.9,84,-0.092,-0.175,0.023,2.939,46.32154479,-79.36420040,358.86,359.90,10.44,337.59,-0.76,-2.82,20.03,271,296,252,259,1460.00,0,BT,-3.643,-3.637,-3.645,-3.643
2021-06-16T18:32:44.43,199,56.352,55.856,35.599,57.344,51.149,25.265,12644,25.763,51.149,2,-0.020,-0.680,0.681,181.7,88,0.020,-0.178,-0.006,2.982,46.32157103,-79.36420979,359.51,0.97,10.62,343.64,-1.98,-1.58,20.03,234,226,226,229,1460.00,0,BT,-3.665,-3.667,-3.664,-3.666
2021-06-16T18:32:45.43,200,51.886,51.588,35.400,54.455,48.111,0.600,12324,25.781,48.111,2,-0.070,-0.775,0.778,185.1,83,-0.079,-0.276,0.171,2.925,46.32158804,-79.36420679,359.70,1.70,10.90,338.69,-1.96,-3.79,20.03,243,240,236,267,1460.00,0,BT,-3.613,-3.614,-3.614,-3.625
2021-06-16T18:32:46.43,201,51.489,51.191,36.194,52.183,47.569,25.414,12832,25.871,47.569,2,-0.119,-0.826,0.834,188.2,82,-0.076,-0.274,0.270,2.925,46.32162944,-79.36419788,358.92,4.35,11.19,338.13,-2.04,-3.61,20.03,234,223,220,232,1460.00,0,BT,-3.625,-3.625,-3.619,-3.627
2021-06-16T18:32:47.43,202,51.092,50.993,35.301,51.786,47.181,25.414,12691,26.007,47.181,2,-0.115,-0.805,0.813,188.1,81,-0.078,-0.203,0.168,2.849,46.32165077,-79.36419541,358.82,2.79,11.41,339.67,-1.18,-2.88,20.03,254,253,257,253,1460.00,0,BT,-3.623,-3.625,-3.625,-3.625
2021-06-16T18:32:48.43,203,58.435,54.565,35.500,57.244,51.298,25.581,12684,26.139,51.298,2,-0.088,-0.720,0.725,186.9,89,-0.037,-0.189,0.133,2.897,46.32167603,-79.36419781,358.79,1.92,11.60,340.31,-1.47,-2.26,20.04,274,258,258,264,1460.00,0,BT,-3.629,-3.635,-3.630,-3.631
2021-06-16T18:32:49.43,204,56.748,56.650,35.599,57.244,51.347,25.699,12674,26.250,51.347,2,-0.084,-0.752,0.756,186.4,89,-0.082,-0.250,0.068,2.971,46.32170737,-79.36419367,358.98,1.94,11.86,338.22,-1.96,-3.47,20.04,269,256,262,257,1460.00,0,BT,-3.596,-3.597,-3.578,-3.600
2021-06-16T18:32:50.43,205,51.179,56.947,35.996,64.589,51.910,25.843,12508,26.322,51.910,2,-0.090,-0.848,0.853,186.0,90,-0.039,-0.403,0.083,2.916,46.32173507,-79.36419578,359.52,1.74,12.27,337.69,-2.57,-3.28,20.04,614,245,253,625,1460.00,0,BT,-3.546,-3.610,-3.612,-3.534
2021-06-16T18:32:51.43,206,50.000,56.848,35.699,57.344,49.935,0.600,11901,26.480,49.935,2,-0.068,-0.622,0.626,186.2,86,-0.042,-0.103,0.130,2.911,46.32174428,-79.36419721,359.58,1.93,12.38,344.42,-0.57,-1.48,20.04,268,234,257,244,1460.00,0,BT,-3.608,-3.615,-3.611,-3.616
2021-06-16T18:32:52.43,207,55.161,54.962,35.699,55.955,50.331,26.172,12773,26.597,50.331,2,-0.083,-0.656,0.661,187.2,87,-0.062,-0.183,0.159,2.939,46.32178164,-79.36419095,359.28,1.27,12.57,339.59,-1.20,-2.53,20.04,249,242,256,247,1460.00,0,BT,-3.608,-3.608,-3.608,-3.609
2021-06-16T18:32:53.43,208,52.085,52.183,35.996,59.329,49.799,0.600,12144,26.693,49.799,2,-0.075,-0.686,0.690,186.2,86,-0.021,-0.152,0.101,2.935,46.32179724,-79.36419419,358.74,2.85,12.72,339.63,-1.03,-1.95,20.05,260,252,238,334,1460.00,0,BT,-3.606,-3.605,-3.621,-3.615
2021-06-16T18:32:54.43,209,52.382,55.657,43.947,52.680,51.095,26.487,12729,26.734,51.095,2,-0.068,-0.681,0.684,185.7,88,-0.059,-0.206,0.064,2.932,46.32183466,-79.36418700,358.58,1.96,12.94,339.66,-1.20,-2.69,20.05,232,240,264,235,1460.00,0,BT,-3.631,-3.632,-3.644,-3.630
2021-06-16T18:32:55.43,210,51.379,56.550,36.591,58.336,50.513,0.600,12313,26.784,50.513,2,-0.043,-0.767,0.768,183.2,87,0.009,-0.325,0.062,2.965,46.32185013,-79.36419197,358.82,1.42,13.26,337.96,-2.21,-3.31,20.06,586,250,249,250,1460.00,0,BT,-3.586,-3.649,-3.652,-3.652
2021-06-16T18:32:56.43,211,56.848,57.047,36.790,57.840,51.946,0.600,12366,26.857,51.946,2,-0.038,-0.773,0.774,182.8,90,-0.050,-0.244,0.014,2.942,46.32187644,-79.36419155,359.35,0.90,13.51,340.68,-1.94,-2.99,20.06,255,271,256,262,1460.00,0,BT,-3.649,-3.647,-3.649,-3.648
2021-06-16T18:32:57.43,212,58.635,55.756,37.385,63.894,53.607,0.600,12129,26.867,53.607,2,-0.108,-0.761,0.768,188.1,93,-0.122,-0.340,0.116,2.914,46.32190303,-79.36419128,360.00,0.72,13.87,340.10,-2.46,-3.45,20.06,247,282,336,468,1460.00,0,BT,-3.674,-3.681,-3.659,-3.610
2021-06-16T18:32:58.43,213,57.244,57.542,40.362,57.741,53.049,0.600,12426,26.898,53.049,2,-0.091,-0.708,0.714,187.4,92,-0.061,-0.243,0.177,2.898,46.32192928,-79.36418979,359.98,2.23,14.12,340.63,-1.95,-3.04,20.07,245,229,292,240,1460.00,0,BT,-3.652,-3.653,-3.645,-3.652
2021-06-16T18:32:59.43,214,56.947,56.550,36.591,57.443,51.773,0.600,12491,26.938,51.773,2,-0.106,-0.701,0.709,188.6,89,-0.080,-0.182,0.197,2.887,46.32195479,-79.36418724,359.42,3.57,14.32,340.58,-1.00,-2.65,20.07,247,248,241,246,1460.00,0,BT,-3.689,-3.688,-3.688,-3.690
2021-06-16T18:33:00.43,215,57.443,59.825,36.493,57.741,52.740,26.437,12631,26.950,52.740,2,-0.093,-0.684,0.690,187.7,91,-0.038,-0.209,0.112,2.874,46.32199279,-79.36418187,358.83,2.56,14.53,338.90,-1.65,-2.60,20.08,242,251,242,239,1460.00,0,BT,-3.660,-3.653,-3.661,-3.658
2021-06-16T18:33:01.43,216,57.741,56.848,36.293,58.336,52.178,26.453,12548,26.964,52.178,2,-0.067,-0.705,0.708,185.4,90,-0.054,-0.189,0.142,2.910,46.32201705,-79.36417879,358.53,3.16,14.73,339.41,-1.30,-2.48,20.10,224,224,240,217,1460.00,0,BT,-3.642,-3.643,-3.641,-3.642
2021-06-16T18:33:02.43,217,57.840,56.848,40.065,57.741,53.066,0.600,12320,26.994,53.066,2,-0.072,-0.652,0.656,186.3,92,-0.056,-0.127,0.036,2.922,46.32203234,-79.36418249,358.75,1.28,14.87,339.83,-0.57,-1.96,20.12,290,289,291,286,1460.00,0,BT,-3.668,-3.662,-3.674,-3.669
2021-06-16T18:33:03.43,218,58.535,52.580,36.591,52.482,49.969,0.600,12430,27.067,49.969,2,-0.072,-0.634,0.638,186.5,86,-0.046,-0.119,0.029,2.945,46.32205914,-79.36418257,359.68,0.46,15.00,345.30,-1.10,-1.63,20.15,262,249,272,261,1460.00,0,BT,-3.679,-3.672,-3.656,-3.670
2021-06-16T18:33:04.43,219,57.344,53.573,40.771,57.642,52.167,26.497,12939,27.076,52.167,2,-0.085,-0.643,0.649,187.5,90,-0.077,-0.196,0.127,2.896,46.32209827,-79.36417639,0.34,1.06,15.21,340.90,-1.59,-2.91,20.16,235,232,397,244,1460.00,0,BT,-3.661,-3.655,-3.638,-3.665
2021-06-16T18:33:05.43,220,58.733,56.352,36.194,57.642,52.192,0.600,12354,27.180,52.192,2,-0.103,-0.584,0.593,190.0,90,-0.074,-0.107,0.185,2.902,46.32211122,-79.36417949,0.26,3.76,15.34,343.72,-0.19,-1.75,20.18,239,234,232,243,1460.00,0,BT,-3.666,-3.672,-3.675,-3.669
2021-06-16T18:33:06.43,221,52.183,52.382,36.393,57.741,49.494,26.758,12845,27.201,49.494,2,-0.099,-0.680,0.687,188.2,85,-0.049,-0.234,0.116,2.905,46.32215102,-79.36417352,0.13,2.44,15.58,335.77,-1.86,-2.89,20.19,286,280,276,289,1460.00,0,BT,-3.683,-3.681,-3.683,-3.686
