Date_Time,EnsNo,BT1Depth,BT2Depth,BT3Depth,BT4Depth,BTDepth,AltiDepth,AltiDepthQ,BeamDepth,DEPTH,D_Source,VEast,VNorth,Vel_avg,Dir_avg,Range,BTEast,BTNorth,GPSEast,GPSNorth,LAT,LON,GPSHeading,GPSBearing,DistTravelled,SHeading,SPitch,SRoll,STempC,fom1,fom2,fom3,fom4,SoundSpd,Valid,CorrSrc,BT1Vel,BT2Vel,BT3Vel,BT4Vel
2021-06-16T19:29:22.43,1,55.856,55.062,32.523,35.103,44.660,22.241,12991,22.712,44.660,2,0.269,0.706,0.756,20.9,77,0.101,0.108,-0.709,-2.775,46.30840260,-79.31109907,195.27,-32768.00,0.00,146.78,-0.57,-1.97,20.49,237,225,216,227,1460.00,0,BT,-3.751,-3.752,-3.754,-3.753
2021-06-16T19:29:23.43,2,55.459,54.466,32.323,34.308,44.151,22.228,13105,22.657,44.151,2,0.276,0.725,0.776,20.8,76,0.096,0.121,-0.711,-2.772,46.30837643,-79.31110793,195.26,194.01,0.15,146.11,-0.85,-2.09,20.50,261,235,235,244,1460.00,0,BT,-3.719,-3.716,-3.716,-3.721
2021-06-16T19:29:24.43,3,51.886,57.741,32.323,35.599,44.418,22.235,13037,22.667,44.418,2,0.246,0.698,0.740,19.4,76,0.082,0.076,-0.705,-2.762,46.30835398,-79.31111519,195.12,194.30,0.27,144.54,-0.47,-1.45,20.50,223,217,236,252,1460.00,0,BT,-3.759,-3.767,-3.751,-3.763
2021-06-16T19:29:25.43,4,45.126,50.794,32.523,36.691,41.293,22.280,13007,22.704,41.293,2,0.250,0.762,0.802,18.2,71,0.062,0.119,-0.655,-2.827,46.30832695,-79.31112513,195.50,193.37,0.40,144.94,-0.75,-1.90,20.50,462,240,236,226,1460.00,0,BT,-3.710,-3.716,-3.726,-3.736
2021-06-16T19:29:26.43,5,52.680,50.199,36.691,36.889,44.113,22.390,12945,22.740,44.113,2,0.236,0.726,0.763,18.0,76,0.060,0.090,-0.702,-2.759,46.30830255,-79.31113169,196.01,193.38,0.51,145.13,-0.70,-1.40,20.51,228,238,218,244,1460.00,0,BT,-3.731,-3.724,-3.730,-3.728
2021-06-16T19:29:27.43,6,54.168,44.630,33.515,38.775,42.756,22.398,12555,22.750,42.756,2,0.244,0.738,0.777,18.3,73,0.080,0.093,-0.693,-2.815,46.30827817,-79.31114208,196.19,194.29,0.63,145.97,-0.43,-1.53,20.51,218,206,224,214,1460.00,0,BT,-3.707,-3.720,-3.718,-3.716
2021-06-16T19:29:28.43,7,47.508,54.962,32.323,35.301,42.532,0.600,12256,22.710,42.532,2,0.245,0.755,0.793,18.0,73,0.061,0.169,-0.673,-2.770,46.30825639,-79.31114509,196.93,193.53,0.81,147.37,-1.15,-1.87,20.51,444,249,229,264,1460.00,0,BT,-3.648,-3.679,-3.682,-3.678
2021-06-16T19:29:29.43,8,55.062,54.665,32.026,37.088,44.728,22.488,12579,22.647,44.728,2,0.248,0.717,0.758,19.1,77,0.088,0.078,-0.754,-2.769,46.30822817,-79.31116025,197.14,194.95,0.93,146.91,-0.42,-1.53,20.51,252,234,242,242,1460.00,0,BT,-3.735,-3.734,-3.733,-3.731
2021-06-16T19:29:30.43,9,55.259,45.721,32.323,36.691,42.468,22.443,13045,22.582,42.468,2,0.235,0.699,0.737,18.6,73,-0.018,0.054,-0.775,-2.742,46.30820092,-79.31117183,197.50,194.99,0.99,149.33,-0.78,-2.15,20.52,239,631,227,257,1460.00,0,BT,-3.764,-3.639,-3.764,-3.762
2021-06-16T19:29:31.43,10,48.015,48.103,34.905,38.389,42.331,0.600,12278,22.489,42.331,2,0.277,0.756,0.805,20.1,72,0.091,0.137,-0.768,-2.809,46.30818155,-79.31117411,197.60,195.50,1.15,148.84,-1.10,-1.71,20.51,243,237,222,357,1460.00,0,BT,-3.767,-3.780,-3.767,-3.763
2021-06-16T19:29:32.43,11,48.699,55.259,39.569,38.378,45.494,22.115,12800,22.417,45.494,2,0.263,0.741,0.786,19.5,78,0.068,0.185,-0.794,-2.736,46.30815092,-79.31119057,197.94,195.40,1.35,150.00,-0.93,-2.01,20.52,625,229,250,237,1460.00,0,BT,-3.689,-3.735,-3.746,-3.735
2021-06-16T19:29:33.43,12,55.657,54.962,51.776,37.882,50.100,0.600,12352,22.330,50.100,2,0.277,0.616,0.676,24.2,86,0.140,0.019,-0.796,-2.778,46.30813202,-79.31119462,198.01,196.73,1.49,148.91,-0.51,-1.69,20.52,238,226,644,395,1460.00,0,BT,-3.779,-3.777,-3.709,-3.767
2021-06-16T19:29:34.43,13,56.252,57.344,48.611,36.889,49.807,0.600,12490,22.206,49.807,2,0.290,0.583,0.651,26.5,86,0.108,0.092,-0.805,-2.781,46.30810684,-79.31120424,198.56,195.10,1.63,150.19,-0.86,-1.91,20.52,237,226,234,239,1460.00,0,BT,-3.711,-3.709,-3.688,-3.708
2021-06-16T19:29:35.43,14,50.386,57.829,57.244,41.267,51.723,21.703,13550,22.015,51.723,2,0.280,0.639,0.698,23.7,89,0.136,0.188,-0.781,-2.813,46.30807667,-79.31122166,199.11,196.26,1.86,151.24,-0.68,-1.93,20.52,570,315,271,528,1460.00,0,BT,-3.709,-3.780,-3.760,-3.724
2021-06-16T19:29:36.43,15,56.947,61.412,54.764,37.683,52.752,21.620,13122,21.784,52.752,2,0.277,0.626,0.685,23.9,91,0.093,0.121,-0.821,-2.772,46.30805047,-79.31123106,199.94,195.91,2.02,152.47,-0.98,-1.87,20.52,259,246,250,245,1460.00,0,BT,-3.736,-3.733,-3.736,-3.732
2021-06-16T19:29:37.43,16,55.558,55.459,54.367,47.607,53.230,21.582,12670,21.651,53.230,2,0.294,0.617,0.683,25.5,92,0.177,0.163,-0.830,-2.780,46.30802490,-79.31124417,200.83,197.10,2.26,154.89,-0.98,-2.36,20.52,218,212,216,519,1460.00,0,BT,-3.718,-3.720,-3.723,-3.669
2021-06-16T19:29:38.43,17,55.558,59.428,54.764,47.508,54.316,21.340,12627,21.541,54.316,2,0.335,0.639,0.721,27.7,94,0.159,0.156,-0.916,-2.760,46.30799969,-79.31125397,201.87,197.13,2.48,156.35,-1.12,-2.16,20.52,232,323,253,546,1460.00,0,BT,-3.718,-3.706,-3.719,-3.661
2021-06-16T19:29:39.43,18,54.367,52.183,49.603,44.432,50.133,21.059,13084,21.311,50.133,2,0.330,0.638,0.718,27.3,87,0.109,0.070,-0.912,-2.770,46.30797572,-79.31126538,203.16,198.05,2.61,156.88,-0.86,-2.03,20.53,274,295,280,280,1460.00,0,BT,-3.732,-3.719,-3.701,-3.735
2021-06-16T19:29:40.43,19,57.344,50.187,52.977,46.714,51.759,20.965,12759,21.053,51.759,2,0.326,0.594,0.678,28.8,89,0.143,0.109,-0.976,-2.712,46.30794988,-79.31127914,204.27,198.49,2.79,158.88,-0.95,-2.48,20.53,217,268,254,198,1460.00,0,BT,-3.734,-3.736,-3.720,-3.741
2021-06-16T19:29:41.43,20,60.619,55.756,55.856,46.912,54.761,20.714,12976,20.730,54.761,2,0.328,0.587,0.672,29.2,95,0.160,0.169,-1.009,-2.714,46.30792470,-79.31129062,205.44,200.21,3.02,159.77,-1.19,-2.24,20.53,409,239,232,543,1460.00,0,BT,-3.720,-3.739,-3.737,-3.700
2021-06-16T19:29:42.43,21,62.703,62.206,49.592,47.111,55.386,20.458,12635,20.542,55.386,2,0.316,0.551,0.635,29.9,96,0.115,0.080,-1.100,-2.636,46.30790090,-79.31130326,206.07,201.81,3.16,159.49,-1.21,-2.00,20.53,407,555,562,531,1460.00,0,BT,-3.748,-3.717,-3.707,-3.724
2021-06-16T19:29:43.43,22,61.314,55.259,57.145,44.829,54.626,20.015,12836,20.239,54.626,2,0.330,0.574,0.662,29.9,95,0.135,0.175,-1.115,-2.644,46.30787735,-79.31131774,206.25,203.00,3.38,159.59,-1.14,-1.98,20.54,471,202,223,483,1460.00,0,BT,-3.724,-3.758,-3.758,-3.723
2021-06-16T19:29:44.43,23,18.243,61.412,61.214,45.721,46.764,0.600,12445,19.884,46.764,2,-0.786,3.783,3.864,348.3,80,-1.012,3.280,-1.172,-2.624,46.30785916,-79.31132596,206.04,203.67,6.81,158.96,-1.02,-1.82,20.53,78,507,482,524,1460.00,0,BT,-0.868,-3.714,-3.719,-3.710
2021-06-16T19:29:45.43,24,17.846,62.703,61.214,45.523,46.933,19.423,13875,19.438,46.933,2,-0.775,3.803,3.881,348.5,81,-1.052,3.265,-1.146,-2.617,46.30783161,-79.31134714,205.44,203.99,10.24,158.77,-0.88,-1.80,20.53,247,219,222,229,1460.00,0,BT,-0.888,-3.746,-3.743,-3.749
2021-06-16T19:29:46.43,25,17.549,54.565,58.833,43.737,43.725,18.964,12900,19.092,43.725,2,-0.755,3.838,3.911,348.9,75,-1.031,3.229,-1.120,-2.652,46.30780936,-79.31136187,205.17,203.39,13.63,156.78,-0.44,-1.64,20.53,214,228,245,438,1460.00,0,BT,-0.872,-3.718,-3.714,-3.691
2021-06-16T19:29:47.43,26,17.152,60.123,48.909,44.233,42.673,18.503,13180,18.793,42.673,2,-0.759,3.787,3.863,348.7,73,-1.058,3.139,-1.178,-2.642,46.30778580,-79.31137559,204.83,203.88,16.95,156.13,-0.60,-1.40,20.53,160,383,243,432,1460.00,0,BT,-0.908,-3.696,-3.678,-3.689
2021-06-16T19:29:48.43,27,16.655,62.107,53.474,43.439,43.977,18.020,12974,18.351,43.977,2,-0.822,3.756,3.845,347.7,75,-1.137,3.194,-1.093,-2.648,46.30776302,-79.31138957,204.76,202.98,20.34,153.86,-0.31,-1.16,20.53,175,554,250,449,1460.00,0,BT,-0.875,-3.681,-3.725,-3.705
2021-06-16T19:29:49.43,28,16.358,58.138,52.282,42.447,42.415,17.789,13120,17.881,42.415,2,-0.827,3.838,3.926,347.8,73,-1.060,3.237,-1.144,-2.643,46.30773656,-79.31140565,204.88,203.00,23.74,157.87,-1.08,-1.86,20.53,175,248,264,352,1460.00,0,BT,-0.888,-3.724,-3.713,-3.715
2021-06-16T19:29:50.43,29,15.861,58.435,51.676,40.859,41.807,17.267,12906,17.453,41.807,2,-0.782,3.838,3.917,348.5,72,-1.058,3.186,-1.116,-2.660,46.30771345,-79.31141970,204.96,202.79,27.10,157.46,-0.85,-1.69,20.54,148,252,214,229,1460.00,0,BT,-0.887,-3.688,-3.682,-3.688
2021-06-16T19:29:51.43,30,15.464,59.031,59.428,41.862,44.062,16.893,12842,17.064,44.062,2,-0.798,3.771,3.855,348.0,76,-1.066,3.183,-1.138,-2.662,46.30768928,-79.31143403,205.16,202.76,30.46,157.64,-0.91,-1.68,20.54,198,282,326,414,1460.00,0,BT,-0.874,-3.672,-3.667,-3.688
2021-06-16T19:29:52.43,31,15.167,64.985,58.535,40.462,44.909,16.478,12871,16.680,44.909,2,-0.806,3.755,3.840,347.9,77,-1.124,3.147,-1.081,-2.656,46.30766611,-79.31144797,205.33,202.39,33.80,156.14,-0.71,-1.59,20.53,149,608,219,239,1460.00,0,BT,-0.911,-3.624,-3.702,-3.700
2021-06-16T19:29:53.43,32,14.869,58.535,57.741,39.569,42.790,16.066,13462,16.246,42.790,2,-0.769,3.808,3.885,348.6,73,-1.009,3.188,-1.139,-2.690,46.30764171,-79.31146310,205.42,203.10,37.14,158.16,-0.79,-1.73,20.54,138,239,235,235,1460.00,0,BT,-0.889,-3.679,-3.676,-3.664
2021-06-16T19:29:54.43,33,14.572,65.085,66.077,40.958,46.820,15.710,12853,15.922,46.820,2,-0.720,3.786,3.854,349.2,81,-0.944,3.222,-1.117,-2.653,46.30761774,-79.31147793,205.77,202.98,40.50,159.15,-0.81,-1.85,20.54,209,223,267,554,1460.00,0,BT,-0.912,-3.713,-3.706,-3.659
2021-06-16T19:29:55.43,34,14.175,57.047,53.275,39.271,41.027,15.386,13009,15.520,41.027,2,-0.663,3.850,3.907,350.2,70,-0.984,3.198,-1.143,-2.644,46.30759441,-79.31149274,206.10,203.02,43.84,159.97,-0.52,-1.82,20.54,173,228,222,229,1460.00,0,BT,-0.903,-3.710,-3.705,-3.711
2021-06-16T19:29:56.43,35,13.975,58.535,57.542,38.874,42.382,15.165,13597,15.233,42.382,2,-0.675,3.843,3.902,350.0,73,-0.943,3.252,-1.104,-2.683,46.30756851,-79.31150713,206.75,202.63,47.23,161.92,-1.18,-2.04,20.54,124,259,221,228,1460.00,0,BT,-0.895,-3.703,-3.697,-3.699
2021-06-16T19:29:57.43,36,13.579,50.596,49.305,38.973,38.225,14.862,13441,14.954,38.225,2,-0.579,3.957,3.999,351.7,65,-0.883,3.295,-1.173,-2.625,46.30754427,-79.31152149,207.36,203.19,50.64,162.21,-1.36,-2.03,20.55,190,253,240,522,1460.00,0,BT,-0.884,-3.702,-3.699,-3.667
2021-06-16T19:29:58.43,37,13.480,57.542,53.176,41.752,41.618,14.581,12934,14.702,41.618,2,-0.582,3.919,3.962,351.6,71,-0.898,3.335,-1.177,-2.660,46.30752072,-79.31153633,207.71,204.20,54.10,161.55,-1.28,-1.84,20.55,252,251,264,268,1460.00,0,BT,-0.864,-3.740,-3.719,-3.717
2021-06-16T19:29:59.43,38,11.892,51.080,57.145,38.378,39.760,0.600,12494,14.469,39.760,2,-0.628,3.902,3.952,350.9,68,-0.987,3.314,-1.216,-2.572,46.30750128,-79.31154745,207.80,204.74,57.55,160.87,-1.29,-1.95,20.55,233,670,298,298,1460.00,0,BT,-0.846,-3.643,-3.707,-3.706
2021-06-16T19:30:00.43,39,13.182,42.744,56.748,36.393,37.344,14.093,13359,14.227,37.344,2,-0.650,3.918,3.972,350.6,64,-1.009,3.330,-1.248,-2.540,46.30747555,-79.31156792,206.94,205.85,61.03,157.32,-0.85,-1.70,20.56,168,501,265,263,1460.00,0,BT,-0.809,-3.687,-3.709,-3.708
2021-06-16T19:30:01.43,40,13.083,35.500,49.206,35.400,33.339,13.939,13556,14.063,33.339,2,-0.693,3.956,4.016,350.1,56,-1.071,3.239,-1.268,-2.513,46.30745341,-79.31158413,205.26,206.50,64.44,156.17,-0.78,-1.58,20.57,161,212,239,207,1460.00,0,BT,-0.784,-3.643,-3.630,-3.645
2021-06-16T19:30:02.43,41,13.083,34.905,56.252,35.599,34.985,13.775,13192,13.902,34.985,2,-0.827,3.923,4.009,348.1,59,-1.281,3.249,-1.258,-2.499,46.30743293,-79.31159957,202.83,206.84,67.94,154.72,-0.39,-1.06,20.58,216,221,235,247,1460.00,0,BT,-0.775,-3.696,-3.708,-3.714
2021-06-16T19:30:03.43,42,12.983,37.485,50.894,35.003,34.069,13.635,13520,13.769,34.069,2,-1.016,3.886,4.017,345.3,58,-1.429,3.135,-1.158,-2.523,46.30741269,-79.31161621,199.75,206.15,71.38,152.31,0.29,-0.83,20.59,136,230,201,221,1460.00,0,BT,-0.778,-3.693,-3.704,-3.695
2021-06-16T19:30:04.43,43,12.784,40.275,55.856,37.088,36.457,13.472,12887,13.602,36.457,2,-1.221,3.776,3.969,342.1,62,-1.598,3.048,-1.013,-2.607,46.30739076,-79.31163172,196.95,203.31,74.82,146.35,0.49,-1.02,20.61,126,268,206,219,1460.00,0,BT,-0.795,-3.698,-3.728,-3.728
2021-06-16T19:30:05.43,44,12.587,33.416,56.252,34.805,34.255,13.325,12748,13.464,34.255,2,-1.384,3.725,3.974,339.6,58,-1.641,2.983,-0.833,-2.652,46.30736628,-79.31164487,194.84,200.25,78.23,141.63,-0.05,-1.40,20.62,190,223,228,231,1460.00,0,BT,-0.818,-3.691,-3.693,-3.691
2021-06-16T19:30:06.43,45,12.587,34.308,55.259,34.606,34.211,13.203,13199,13.346,34.211,2,-1.522,3.702,4.003,337.6,58,-1.861,2.962,-0.833,-2.676,46.30734289,-79.31165390,193.46,197.31,81.73,140.30,-0.29,-0.77,20.65,181,546,235,233,1460.00,0,BT,-0.784,-3.667,-3.727,-3.735
2021-06-16T19:30:07.43,46,12.487,34.111,54.367,34.805,33.951,13.052,12920,13.201,33.951,2,-1.632,3.727,4.069,336.3,57,-1.806,2.968,-0.693,-2.680,46.30731885,-79.31166430,192.47,194.75,85.20,145.20,-0.20,-1.14,20.67,199,233,243,236,1460.00,0,BT,-0.788,-3.714,-3.715,-3.707
2021-06-16T19:30:08.43,47,10.998,33.714,55.756,34.210,33.698,12.964,13246,13.103,33.698,2,-1.626,3.721,4.061,336.4,57,-1.862,2.938,-0.731,-2.688,46.30729380,-79.31167474,190.80,194.59,88.68,143.72,-0.53,-1.79,20.69,349,256,255,243,1460.00,0,BT,-0.783,-3.694,-3.695,-3.686
2021-06-16T19:30:09.43,48,12.487,33.714,55.657,34.210,34.022,12.843,13616,13.022,34.022,2,-1.762,3.626,4.032,334.1,58,-2.014,2.818,-0.566,-2.684,46.30727204,-79.31168195,188.77,193.74,92.14,132.33,-0.10,-0.77,20.71,158,211,213,239,1460.00,0,BT,-0.755,-3.679,-3.678,-3.681
2021-06-16T19:30:10.43,49,12.387,33.614,54.367,33.515,33.443,12.768,13720,12.921,33.443,2,-1.924,3.551,4.038,331.6,56,-2.132,2.718,-0.598,-2.687,46.30724925,-79.31169116,186.35,193.07,95.60,135.32,0.29,-0.71,20.72,149,215,224,226,1460.00,0,BT,-0.755,-3.683,-3.689,-3.689
2021-06-16T19:30:11.43,50,12.289,33.118,55.359,33.118,33.377,12.671,13555,12.832,33.377,2,-2.175,3.369,4.011,327.2,56,-2.283,2.580,-0.482,-2.704,46.30722771,-79.31169806,183.75,191.18,99.04,129.52,1.01,0.29,20.73,150,231,228,235,1460.00,0,BT,-0.757,-3.718,-3.718,-3.716
2021-06-16T19:30:12.43,51,12.190,33.118,54.665,33.118,33.247,12.600,13804,12.789,33.247,2,-2.247,3.340,4.025,326.1,56,-2.407,2.531,-0.290,-2.721,46.30720191,-79.31170427,181.02,188.28,102.54,130.46,0.28,-0.49,20.74,122,237,231,247,1460.00,0,BT,-0.716,-3.683,-3.682,-3.684
2021-06-16T19:30:13.43,52,12.190,33.019,50.397,33.118,32.120,12.558,13513,12.724,32.120,2,-2.372,3.265,4.035,324.0,54,-2.502,2.384,-0.271,-2.706,46.30717885,-79.31170941,178.34,186.20,105.99,126.91,0.74,-0.23,20.75,142,209,205,220,1460.00,0,BT,-0.751,-3.709,-3.708,-3.706
2021-06-16T19:30:14.43,53,12.090,32.820,55.062,32.523,32.998,12.490,13996,12.648,32.998,2,-2.490,3.066,3.950,320.9,56,-2.578,2.194,-0.075,-2.715,46.30715653,-79.31171356,175.56,184.54,109.38,120.65,1.33,0.25,20.76,227,251,249,246,1460.00,0,BT,-0.754,-3.678,-3.680,-3.674
2021-06-16T19:30:15.43,54,11.296,32.920,54.863,32.622,32.783,12.411,13791,12.589,32.783,2,-2.638,2.949,3.956,318.2,55,-2.739,2.105,-0.023,-2.698,46.30713316,-79.31171496,173.10,181.13,112.83,118.08,1.46,0.57,20.76,159,244,235,249,1460.00,0,BT,-0.725,-3.716,-3.717,-3.716
2021-06-16T19:30:16.43,55,11.892,52.073,54.565,32.523,37.712,12.363,13960,12.513,37.712,2,-2.796,2.751,3.922,314.5,64,-2.822,2.055,0.119,-2.743,46.30710674,-79.31171402,170.76,178.52,116.32,116.62,0.58,-0.04,20.78,164,215,226,230,1460.00,0,BT,-0.735,-3.731,-3.713,-3.717
2021-06-16T19:30:17.43,56,9.808,50.297,49.802,37.595,36.801,12.262,12708,12.435,36.801,2,-2.904,2.723,3.981,313.2,63,-2.855,1.950,0.209,-2.701,46.30708282,-79.31171393,168.57,176.59,119.78,112.08,0.93,-0.26,20.78,169,229,226,267,1460.00,0,BT,-0.738,-3.707,-3.705,-3.681
2021-06-16T19:30:18.43,57,NaN,NaN,NaN,NaN,0.000,12.188,13530,12.373,36.801,1,0.289,-1.992,2.013,171.7,63,NaN,NaN,0.386,-2.706,46.30705809,-79.31171119,166.48,173.98,0.00,116.13,0.87,-0.49,20.77,0,0,0,0,1460.00,1,BT,NaN,NaN,NaN,NaN
2021-06-16T19:30:19.43,58,11.990,49.603,49.206,33.714,36.016,12.160,13888,12.339,36.016,2,-1.441,0.208,1.456,278.2,61,-3.033,1.664,0.393,-2.680,46.30703596,-79.31170709,164.11,172.11,0.00,109.41,1.23,0.31,20.78,196,249,251,239,1460.00,0,BT,-0.723,-3.708,-3.707,-3.712
2021-06-16T19:30:20.43,59,11.892,49.603,49.504,32.126,35.553,12.214,12907,12.296,35.553,2,-3.212,2.299,3.950,305.6,60,-3.102,1.458,0.488,-2.687,46.30701432,-79.31170299,161.51,170.56,3.43,106.66,1.97,1.33,20.78,146,232,234,242,1460.00,0,BT,-0.730,-3.723,-3.724,-3.726
2021-06-16T19:30:21.43,60,11.098,49.305,47.817,32.225,34.977,0.600,12387,12.249,34.977,2,-3.336,2.152,3.970,302.8,59,-3.207,1.349,0.601,-2.658,46.30698686,-79.31169362,158.73,167.98,6.91,106.59,1.20,0.92,20.78,199,257,256,266,1460.00,0,BT,-0.702,-3.708,-3.700,-3.711
2021-06-16T19:30:22.43,61,NaN,NaN,NaN,NaN,0.000,12.052,13530,12.183,34.977,1,-1.438,0.107,1.442,274.3,59,NaN,NaN,0.756,-2.625,46.30696891,-79.31169172,156.08,165.42,0.00,100.32,3.07,1.92,20.77,0,0,0,0,1460.00,1,BT,NaN,NaN,NaN,NaN
2021-06-16T19:30:23.43,62,10.403,53.970,52.085,31.927,36.858,0.600,12376,12.125,36.858,2,-1.454,-0.151,1.462,264.1,63,-3.278,1.019,0.854,-2.557,46.30694047,-79.31167664,153.58,162.95,0.00,96.66,1.70,1.47,20.78,163,229,246,239,1460.00,0,BT,-0.703,-3.693,-3.686,-3.689
2021-06-16T19:30:24.43,63,11.594,49.206,48.611,31.828,35.252,11.911,13402,12.070,35.252,2,-3.589,1.646,3.949,294.6,60,-3.379,0.979,0.954,-2.570,46.30691799,-79.31166750,151.15,160.14,3.52,99.67,0.73,0.00,20.78,202,225,248,229,1460.00,0,BT,-0.713,-3.721,-3.723,-3.721
2021-06-16T19:30:25.43,64,11.594,49.008,48.412,31.431,34.977,11.865,13139,12.005,34.977,2,-3.665,1.451,3.942,291.6,59,-3.365,0.784,1.139,-2.470,46.30689684,-79.31165602,148.81,156.80,6.97,94.70,1.39,0.51,20.77,147,233,232,251,1460.00,0,BT,-0.711,-3.699,-3.699,-3.710
2021-06-16T19:30:26.43,65,11.594,54.267,53.374,31.530,37.547,11.814,13507,11.970,37.547,2,-3.633,1.335,3.871,290.2,64,-3.299,0.636,1.150,-2.423,46.30687457,-79.31164232,146.53,155.22,10.33,94.04,1.35,0.40,20.78,96,219,225,229,1460.00,0,BT,-0.741,-3.645,-3.646,-3.657
2021-06-16T19:30:27.43,66,11.495,52.183,52.282,31.232,36.523,11.771,13312,11.912,36.523,2,-3.651,1.204,3.844,288.3,62,-3.333,0.495,1.313,-2.396,46.30685338,-79.31163075,144.05,153.50,13.70,89.62,2.54,0.62,20.78,172,244,246,251,1460.00,0,BT,-0.716,-3.689,-3.688,-3.689
2021-06-16T19:30:28.43,67,9.510,54.069,54.267,39.679,39.162,11.701,12988,11.878,39.162,2,-3.705,1.016,3.842,285.3,67,-3.409,0.378,1.342,-2.387,46.30683220,-79.31161249,141.72,150.62,17.13,88.93,1.84,0.91,20.79,173,209,206,250,1460.00,0,BT,-0.708,-3.696,-3.697,-3.672
2021-06-16T19:30:29.43,68,11.395,53.771,53.771,31.431,37.308,11.659,12576,11.825,37.308,2,-3.799,0.881,3.900,283.1,63,-3.419,0.198,1.471,-2.276,46.30681147,-79.31159617,139.33,148.11,20.56,83.24,2.33,1.01,20.79,191,194,195,209,1460.00,0,BT,-0.702,-3.712,-3.711,-3.714
2021-06-16T19:30:30.43,69,9.808,53.871,53.275,31.134,36.941,11.583,13110,11.760,36.941,2,-3.848,0.738,3.918,280.9,63,-3.457,0.117,1.513,-2.275,46.30678868,-79.31157469,136.78,146.81,24.02,85.23,0.96,-0.20,20.80,236,255,264,255,1460.00,0,BT,-0.713,-3.686,-3.683,-3.688
2021-06-16T19:30:31.43,70,11.395,49.008,51.874,30.835,35.563,11.549,13298,11.682,35.563,2,-3.899,0.559,3.939,278.2,60,-3.468,-0.108,1.682,-2.166,46.30677073,-79.31155718,134.13,143.92,27.49,81.96,1.86,1.02,20.79,149,241,243,247,1460.00,0,BT,-0.689,-3.674,-3.711,-3.672
2021-06-16T19:30:32.43,71,11.495,53.771,53.474,30.538,36.953,11.463,13070,11.624,36.953,2,-3.808,0.179,3.812,272.7,63,-3.366,-0.313,1.705,-2.141,46.30675254,-79.31153890,131.37,141.75,30.87,81.02,2.66,1.74,20.80,142,227,220,226,1460.00,0,BT,-0.695,-3.681,-3.681,-3.681
2021-06-16T19:30:33.43,72,NaN,NaN,NaN,NaN,0.000,11.391,12945,11.566,36.953,1,-1.207,-0.687,1.389,240.4,63,NaN,NaN,1.842,-2.050,46.30673388,-79.31151901,128.60,139.36,0.00,80.50,3.42,2.12,20.79,0,0,0,0,1460.00,1,BT,NaN,NaN,NaN,NaN
2021-06-16T19:30:34.43,73,NaN,NaN,NaN,NaN,0.000,11.356,12956,11.487,36.953,1,1.419,-1.506,2.069,136.7,63,NaN,NaN,1.919,-1.909,46.30671724,-79.31149705,125.93,136.03,0.00,76.70,3.70,2.89,20.80,0,0,0,0,1460.00,1,BT,NaN,NaN,NaN,NaN
2021-06-16T19:30:35.43,74,11.296,53.374,53.176,30.240,36.633,11.268,12994,11.428,36.633,2,-1.184,-0.887,1.479,233.2,62,-3.285,-0.776,2.019,-1.788,46.30669825,-79.31146992,123.43,133.21,0.00,75.95,2.87,1.72,20.80,200,242,244,258,1460.00,0,BT,-0.687,-3.677,-3.679,-3.680
2021-06-16T19:30:36.43,75,11.098,43.649,53.474,29.943,34.239,11.242,12932,11.375,34.239,2,-3.879,-0.374,3.897,264.5,58,-3.294,-0.940,2.086,-1.766,46.30668150,-79.31144316,120.95,131.19,3.43,72.24,2.46,1.59,20.80,214,211,229,238,1460.00,0,BT,-0.706,-3.705,-3.721,-3.723
2021-06-16T19:30:37.43,76,10.998,53.374,58.336,30.141,37.927,11.217,12502,11.313,37.927,2,-3.818,-0.579,3.861,261.4,65,-3.275,-1.027,2.165,-1.644,46.30666541,-79.31141531,118.76,128.42,6.86,71.52,2.06,1.15,20.79,165,225,257,232,1460.00,0,BT,-0.709,-3.718,-3.711,-3.721
2021-06-16T19:30:38.43,77,7.327,53.474,55.756,29.644,36.198,11.123,12824,11.242,36.198,2,-3.806,-0.781,3.885,258.4,61,-3.232,-1.155,2.201,-1.549,46.30665121,-79.31138875,116.56,126.00,10.29,67.83,2.35,1.57,20.79,262,239,245,375,1460.00,0,BT,-0.692,-3.707,-3.707,-3.694
2021-06-16T19:30:39.43,78,9.808,53.275,53.077,29.644,36.287,11.037,12599,11.179,36.287,2,-3.800,-0.824,3.888,257.8,62,-3.236,-1.229,2.279,-1.490,46.30663566,-79.31135739,114.47,123.65,13.75,66.45,1.56,0.26,20.79,153,245,251,258,1460.00,0,BT,-0.719,-3.722,-3.722,-3.724
2021-06-16T19:30:40.43,79,10.602,53.275,53.275,29.744,36.611,10.935,13059,11.094,36.611,2,-3.811,-0.945,3.926,256.1,62,-3.230,-1.356,2.346,-1.362,46.30662221,-79.31132717,112.19,121.82,17.25,62.37,1.20,0.01,20.79,165,238,231,238,1460.00,0,BT,-0.726,-3.748,-3.746,-3.746
2021-06-16T19:30:41.43,80,NaN,NaN,NaN,NaN,0.000,10.862,12598,11.001,36.611,1,-0.991,-0.991,1.401,225.0,62,NaN,NaN,2.391,-1.292,46.30661004,-79.31129540,109.92,119.02,0.00,61.83,0.52,-0.29,20.79,0,0,0,0,1460.00,1,BT,NaN,NaN,NaN,NaN
2021-06-16T19:30:42.43,81,10.502,47.917,52.879,29.744,35.172,10.805,12796,10.954,35.172,2,-1.010,-1.095,1.489,222.7,60,-3.100,-1.555,2.454,-1.196,46.30659892,-79.31126636,107.53,117.29,0.00,60.49,0.89,0.19,20.79,183,238,226,538,1460.00,0,BT,-0.709,-3.670,-3.683,-3.618
2021-06-16T19:30:43.43,82,10.602,52.879,52.879,29.546,36.430,10.743,12541,10.919,36.430,2,-3.724,-1.378,3.970,249.7,62,-3.051,-1.760,2.487,-1.171,46.30658715,-79.31123426,104.86,116.28,3.52,57.58,0.62,-0.19,20.80,200,225,224,236,1460.00,0,BT,-0.688,-3.695,-3.695,-3.696
2021-06-16T19:30:44.43,83,10.502,52.879,52.879,29.247,36.243,10.705,12688,10.872,36.243,2,-3.641,-1.567,3.964,246.7,62,-2.913,-1.889,2.525,-1.010,46.30657658,-79.31120502,102.12,113.68,6.99,56.90,1.38,0.08,20.80,132,219,222,223,1460.00,0,BT,-0.698,-3.700,-3.700,-3.701
2021-06-16T19:30:45.43,84,10.502,51.092,50.100,28.752,34.823,10.634,12840,10.797,34.823,2,-3.409,-1.852,3.880,241.5,59,-2.721,-2.074,2.549,-0.988,46.30656789,-79.31117664,99.36,111.75,10.42,54.23,2.27,1.46,20.80,182,256,256,218,1460.00,0,BT,-0.688,-3.692,-3.690,-3.707
2021-06-16T19:30:46.43,85,10.602,53.077,52.779,28.752,35.943,10.592,12773,10.716,35.943,2,-3.343,-1.918,3.854,240.2,61,-2.617,-2.158,2.598,-0.742,46.30655862,-79.31114466,96.69,108.34,13.81,51.45,2.83,1.28,20.80,137,221,218,231,1460.00,0,BT,-0.675,-3.681,-3.680,-3.680
2021-06-16T19:30:47.43,86,10.403,52.977,48.202,28.553,34.558,10.494,13352,10.646,34.558,2,-3.209,-2.039,3.802,237.6,59,-2.462,-2.240,2.641,-0.699,46.30655108,-79.31111423,94.19,105.99,17.14,49.73,3.72,1.94,20.79,185,255,502,474,1460.00,0,BT,-0.693,-3.716,-3.690,-3.696
2021-06-16T19:30:48.43,87,8.518,47.618,52.580,34.817,35.529,0.600,12437,10.582,35.529,2,-3.141,-2.166,3.815,235.4,60,-2.475,-2.365,2.675,-0.510,46.30654647,-79.31107092,92.14,103.32,20.56,49.84,2.83,1.62,20.78,300,292,254,292,1460.00,0,BT,-0.713,-3.722,-3.747,-3.687
2021-06-16T19:30:49.43,88,10.105,46.030,53.970,29.346,34.617,10.373,13266,10.480,34.617,2,-3.133,-2.286,3.879,233.9,59,-2.408,-2.434,2.717,-0.439,46.30654057,-79.31104152,90.53,100.65,23.98,47.96,2.04,1.06,20.78,211,231,232,232,1460.00,0,BT,-0.737,-3.714,-3.732,-3.705
2021-06-16T19:30:50.43,89,NaN,NaN,NaN,NaN,0.000,10.266,13053,10.436,34.617,1,-0.517,-1.270,1.371,202.1,59,NaN,NaN,2.742,-0.314,46.30653662,-79.31100365,89.29,97.92,0.00,47.10,1.36,0.21,20.78,0,0,0,0,1460.00,1,BT,NaN,NaN,NaN,NaN
2021-06-16T19:30:51.43,90,NaN,NaN,NaN,NaN,0.000,10.213,12888,10.386,34.617,1,2.007,-0.234,2.020,96.6,59,NaN,NaN,2.737,-0.271,46.30653460,-79.31096581,88.53,95.78,0.00,47.25,0.32,-0.28,20.78,0,0,0,0,1460.00,1,BT,NaN,NaN,NaN,NaN
2021-06-16T19:30:52.43,91,NaN,NaN,NaN,NaN,0.000,0.600,12497,10.328,34.617,1,2.053,-0.156,2.059,94.4,59,NaN,NaN,2.768,-0.194,46.30653328,-79.31093023,87.81,94.17,0.00,46.80,-0.01,-0.57,20.76,0,0,0,0,1460.00,1,BT,NaN,NaN,NaN,NaN
2021-06-16T19:30:53.43,92,NaN,NaN,NaN,NaN,0.000,0.600,12159,10.248,34.617,1,2.038,-0.139,2.042,93.9,59,NaN,NaN,2.739,-0.163,46.30653143,-79.31089499,86.81,93.68,0.00,45.29,0.81,-0.04,20.74,0,0,0,0,1460.00,1,BT,NaN,NaN,NaN,NaN
2021-06-16T19:30:54.43,93,9.907,39.282,47.012,27.561,30.795,10.035,12807,10.185,30.795,2,-0.525,-1.435,1.528,200.1,52,-2.233,-2.750,2.742,-0.108,46.30652894,-79.31086344,85.28,92.49,0.00,44.30,1.53,0.70,20.72,199,219,229,257,1460.00,0,BT,-0.699,-3.706,-3.767,-3.735
2021-06-16T19:30:55.43,94,NaN,NaN,NaN,NaN,0.000,9.969,12595,10.088,30.795,1,-0.530,-1.384,1.482,201.0,52,NaN,NaN,2.724,-0.034,46.30652755,-79.31082870,83.27,91.76,0.00,42.96,1.65,0.79,20.71,0,0,0,0,1460.00,1,BT,NaN,NaN,NaN,NaN
2021-06-16T19:30:56.43,95,NaN,NaN,NaN,NaN,0.000,9.880,12872,10.012,30.795,1,1.954,0.009,1.954,89.7,52,NaN,NaN,2.716,0.054,46.30652649,-79.31079396,81.00,90.29,0.00,40.88,1.85,0.76,20.71,0,0,0,0,1460.00,1,BT,NaN,NaN,NaN,NaN
2021-06-16T19:30:57.43,96,37.584,50.894,53.374,26.965,42.118,9.821,12643,9.945,42.118,2,0.818,0.034,0.819,87.6,72,0.091,0.079,2.732,0.187,46.30652689,-79.31075819,78.77,87.57,0.00,38.62,1.58,0.39,20.71,241,265,249,262,1460.00,0,BT,-3.657,-3.648,-3.653,-3.652
2021-06-16T19:30:58.43,97,42.347,49.901,49.305,26.370,41.918,0.600,12445,9.872,41.918,2,-0.482,0.017,0.482,272.0,72,0.082,0.054,2.733,0.217,46.30652969,-79.31072072,76.46,85.85,0.10,37.67,1.30,0.65,20.72,228,218,220,224,1460.00,0,BT,-3.685,-3.685,-3.688,-3.681
2021-06-16T19:30:59.43,98,54.356,46.726,51.688,27.263,44.950,0.600,12498,9.721,44.950,2,-0.387,-0.094,0.398,256.3,77,0.093,-0.020,2.676,0.386,46.30653163,-79.31068623,74.36,84.08,0.19,36.99,1.63,1.04,20.73,583,207,223,227,1460.00,0,BT,-3.591,-3.651,-3.664,-3.667
2021-06-16T19:31:00.43,99,26.667,51.489,56.550,26.667,40.249,0.600,12453,9.597,40.249,2,-0.476,-0.080,0.483,260.5,69,0.037,0.050,2.697,0.399,46.30653458,-79.31065174,72.32,81.71,0.26,34.51,1.15,0.32,20.74,234,218,207,238,1460.00,0,BT,-3.679,-3.676,-3.696,-3.666
2021-06-16T19:31:01.43,100,30.946,46.626,45.535,26.965,37.465,9.340,12567,9.333,37.465,2,-0.548,-0.067,0.552,263.1,64,0.042,0.066,2.626,0.531,46.30653682,-79.31061892,70.11,79.55,0.33,31.73,1.29,0.13,20.74,305,246,247,260,1460.00,0,BT,-3.654,-3.669,-3.665,-3.670
2021-06-16T19:31:02.43,101,25.675,51.786,51.786,33.118,40.431,9.104,12670,9.086,40.431,2,-0.481,-0.052,0.483,263.9,69,0.103,0.117,2.625,0.600,46.30654041,-79.31058662,68.00,77.90,0.49,30.86,2.11,0.52,20.75,231,224,231,240,1460.00,0,BT,-3.656,-3.657,-3.656,-3.667
2021-06-16T19:31:03.43,102,26.072,53.176,51.489,27.164,39.476,8.744,12866,8.747,39.476,2,-0.529,-0.087,0.536,260.6,67,-0.031,0.059,2.558,0.836,46.30654796,-79.31054939,66.79,74.24,0.56,29.80,0.64,-0.75,20.75,209,237,219,230,1460.00,0,BT,-3.662,-3.660,-3.664,-3.662
2021-06-16T19:31:04.43,103,26.965,50.993,51.688,27.263,39.217,0.600,12474,8.380,39.217,2,-0.585,-0.174,0.610,253.4,67,-0.045,-0.016,2.564,0.885,46.30655675,-79.31051693,66.23,71.35,0.60,29.97,0.63,-0.53,20.75,550,220,219,222,1460.00,0,BT,-3.612,-3.676,-3.676,-3.677
2021-06-16T19:31:05.43,104,26.469,51.489,51.290,28.454,39.361,8.007,12991,7.970,39.361,2,-0.530,-0.157,0.553,253.5,67,0.048,0.086,2.555,0.969,46.30656384,-79.31048477,66.20,70.24,0.70,31.01,1.06,0.09,20.76,234,263,248,257,1460.00,0,BT,-3.696,-3.680,-3.678,-3.686
2021-06-16T19:31:06.43,105,28.752,54.764,51.786,30.637,41.530,7.627,12773,7.617,41.530,2,-0.494,-0.140,0.514,254.2,71,-0.058,0.017,2.592,0.948,46.30657389,-79.31044901,66.47,69.01,0.76,31.10,-0.22,-0.81,20.76,232,226,236,237,1460.00,0,BT,-3.716,-3.719,-3.708,-3.717
2021-06-16T19:31:07.43,106,29.149,47.320,52.073,6.830,33.984,7.315,13326,7.229,33.984,2,-2.236,0.401,2.271,280.2,57,-3.202,1.156,2.553,0.949,46.30658286,-79.31041468,66.11,69.28,4.17,30.37,-0.80,-1.42,20.76,246,258,219,135,1460.00,0,BT,-3.697,-3.692,-3.722,-0.885
2021-06-16T19:31:08.43,107,29.247,52.580,48.115,6.533,34.216,6.923,13141,6.895,34.216,2,-3.729,1.000,3.860,285.0,58,-3.153,1.196,2.607,0.906,46.30658963,-79.31038238,65.18,70.07,7.54,28.00,0.54,-1.38,20.76,243,231,241,143,1460.00,0,BT,-3.646,-3.655,-3.642,-0.870
2021-06-16T19:31:09.43,108,28.156,52.482,52.073,6.136,34.728,6.593,12847,6.618,34.728,2,-3.627,1.002,3.763,285.4,59,-3.062,1.147,2.573,0.921,46.30659807,-79.31035065,63.78,69.79,10.81,27.20,0.55,-0.49,20.76,257,251,583,215,1460.00,0,BT,-3.651,-3.650,-3.592,-0.911
2021-06-16T19:31:10.43,109,30.152,43.053,46.626,5.838,31.304,6.323,13506,6.330,31.304,2,-3.616,0.858,3.716,283.3,53,-3.064,0.968,2.566,0.987,46.30660522,-79.31031959,61.56,70.32,14.02,27.27,1.43,0.70,20.76,325,249,244,206,1460.00,0,BT,-3.621,-3.636,-3.645,-0.887
2021-06-16T19:31:11.43,110,28.553,52.482,46.218,5.639,33.241,6.128,12875,6.103,33.241,2,-3.621,0.703,3.688,281.0,56,-3.187,0.832,2.496,1.003,46.30661380,-79.31028469,59.20,68.88,17.32,23.29,0.69,-0.49,20.75,213,213,235,206,1460.00,0,BT,-3.651,-3.646,-3.663,-0.886
2021-06-16T19:31:12.43,111,29.546,52.879,5.739,5.441,23.436,5.827,13352,5.864,23.436,2,-2.752,5.411,6.070,333.0,38,-2.131,5.702,2.460,1.136,46.30662228,-79.31025394,56.78,66.89,23.40,23.04,1.13,0.16,20.74,250,246,157,279,1460.00,0,BT,-3.663,-3.662,0.652,-0.910
2021-06-16T19:31:13.43,112,29.744,53.176,5.639,5.143,23.464,5.597,13172,5.638,23.464,2,-2.860,5.398,6.109,332.1,39,-2.381,5.671,2.415,1.213,46.30663224,-79.31022223,54.85,64.23,29.55,21.89,1.29,0.19,20.73,208,219,195,155,1460.00,0,BT,-3.684,-3.700,0.655,-0.891
2021-06-16T19:31:14.43,113,32.026,52.879,5.243,5.045,23.808,5.426,13344,5.397,23.808,2,-3.062,5.324,6.142,330.1,39,-2.463,5.665,2.345,1.408,46.30664352,-79.31019205,53.52,61.25,35.73,21.29,1.36,0.58,20.71,232,217,120,120,1460.00,0,BT,-3.704,-3.704,0.682,-0.917
2021-06-16T19:31:15.43,114,37.199,53.871,5.045,4.746,25.281,5.193,13215,5.166,25.281,2,-3.159,5.284,6.156,329.1,42,-2.653,5.585,2.341,1.339,46.30665644,-79.31016020,52.53,59.42,41.91,21.12,0.38,-0.42,20.69,264,192,143,125,1460.00,0,BT,-3.676,-3.725,0.699,-0.897
2021-06-16T19:31:16.43,115,32.225,54.665,4.845,4.548,24.159,4.972,13216,4.919,24.159,2,-3.310,5.210,6.173,327.6,40,-2.742,5.547,2.267,1.482,46.30666939,-79.31012993,51.66,57.85,48.10,19.27,0.01,-0.89,20.68,237,235,274,373,1460.00,0,BT,-3.672,-3.673,0.716,-0.855
2021-06-16T19:31:17.43,116,36.691,55.062,4.548,4.251,25.215,4.748,13081,4.730,25.215,2,-3.366,5.184,6.181,327.0,42,-2.759,5.530,2.263,1.498,46.30668218,-79.31010182,50.92,55.85,54.28,19.27,0.95,-0.18,20.68,240,242,141,101,1460.00,0,BT,-3.706,-3.707,0.674,-0.912
2021-06-16T19:31:18.43,117,37.385,60.619,4.349,4.151,26.720,4.484,13168,4.463,26.720,2,-3.404,5.154,6.177,326.6,44,-2.878,5.482,2.212,1.588,46.30669576,-79.31007240,49.79,55.81,60.47,17.64,0.72,-0.42,20.68,279,432,116,99,1460.00,0,BT,-3.682,-3.665,0.711,-0.866
2021-06-16T19:31:19.43,118,39.668,58.932,4.052,3.952,26.719,4.331,13115,4.307,26.719,2,-3.591,4.930,6.099,323.9,44,-2.930,5.340,2.229,1.598,46.30670965,-79.31004371,48.67,54.72,66.57,17.21,0.73,-0.15,20.68,405,241,102,95,1460.00,0,BT,-3.651,-3.669,0.673,-0.912
2021-06-16T19:31:20.43,119,3.854,3.952,3.854,3.754,3.853,4.085,13091,7.765,3.853,2,-2.600,1.818,3.172,305.0,3,2.133,1.653,2.153,1.652,46.30672400,-79.31001540,47.55,53.72,69.26,17.39,0.55,0.15,20.68,106,78,64,113,1460.00,0,BT,-0.746,0.865,0.730,-0.874
2021-06-16T19:31:21.43,120,3.754,3.854,3.754,3.952,3.827,3.922,13034,7.522,3.827,2,-0.010,0.045,0.046,346.7,3,2.098,1.757,2.186,1.649,46.30673806,-79.30998689,46.46,52.65,72.00,15.35,1.61,0.04,20.68,63,61,59,140,1460.00,0,BT,-0.793,0.846,0.737,-0.889
2021-06-16T19:31:22.43,121,3.754,3.854,3.654,3.654,3.728,3.807,13020,5.581,3.728,2,0.008,0.052,0.053,8.4,3,2.085,1.813,2.133,1.765,46.30675312,-79.30995908,45.71,51.74,74.76,14.97,1.51,0.08,20.67,63,141,68,163,1460.00,0,BT,-0.826,0.822,0.728,-0.921
2021-06-16T19:31:23.43,122,3.654,3.654,3.654,3.654,3.654,3.750,13003,7.272,3.654,2,-0.052,0.000,0.052,270.5,3,2.037,1.818,2.092,1.823,46.30676949,-79.30993117,45.66,49.98,77.49,15.39,0.99,-0.26,20.67,105,79,59,124,1460.00,0,BT,-0.823,0.815,0.732,-0.889
2021-06-16T19:31:24.43,123,3.654,3.654,3.555,3.555,3.605,3.745,12975,7.218,3.605,2,-0.095,-0.010,0.096,264.1,3,1.988,1.797,2.043,1.855,46.30678666,-79.30990381,46.19,48.45,80.17,17.19,0.25,-0.69,20.66,104,138,56,120,1460.00,0,BT,-0.816,0.771,0.738,-0.878
2021-06-16T19:31:25.43,124,3.654,3.654,3.555,3.457,3.579,3.670,12989,3.777,3.579,2,-0.034,-0.053,0.063,212.6,3,2.043,1.823,2.108,1.841,46.30680404,-79.30987617,46.95,48.15,82.91,16.91,-0.53,-1.54,20.65,87,180,102,158,1460.00,0,BT,-0.821,0.823,0.779,-0.851
2021-06-16T19:31:26.43,125,3.654,3.654,3.457,3.654,3.603,3.703,12977,5.414,3.603,2,0.076,-0.004,0.076,93.2,3,2.072,1.757,2.081,1.836,46.30682105,-79.30984894,47.55,48.33,85.63,17.73,-0.71,-1.64,20.65,95,92,63,124,1460.00,0,BT,-0.806,0.806,0.757,-0.879
2021-06-16T19:31:27.43,126,3.654,3.654,2.762,3.654,3.428,3.671,12953,3.663,3.428,2,0.083,0.031,0.089,69.5,2,2.090,1.750,2.111,1.828,46.30683762,-79.30982150,48.22,48.99,88.36,16.91,-0.68,-1.89,20.63,102,80,76,147,1460.00,0,BT,-0.805,0.807,0.772,-0.875
2021-06-16T19:31:28.43,127,3.854,3.952,2.960,3.952,3.677,3.663,12972,7.188,3.677,2,0.144,0.046,0.151,72.3,3,2.135,1.652,2.123,1.768,46.30685387,-79.30979402,48.52,49.84,91.05,18.13,-0.46,-1.48,20.63,79,120,33,103,1460.00,0,BT,-0.797,0.825,0.708,-0.891
2021-06-16T19:31:29.43,128,3.854,3.854,3.754,3.754,3.799,3.378,12953,7.345,3.799,2,0.025,0.052,0.057,25.6,3,2.060,1.669,2.157,1.720,46.30687005,-79.30976553,48.54,50.71,93.71,15.52,-1.51,-2.64,20.63,104,80,173,102,1460.00,0,BT,-0.768,0.811,0.751,-0.842
2021-06-16T19:31:30.43,129,4.052,3.854,3.654,3.754,3.827,3.839,13027,7.471,3.827,2,-0.035,-0.004,0.035,264.3,3,2.150,1.497,2.183,1.659,46.30688486,-79.30973830,47.86,51.68,96.33,14.07,-0.64,-1.40,20.63,51,37,74,78,1460.00,0,BT,-0.694,0.868,0.661,-0.884
2021-06-16T19:31:31.43,130,4.052,4.052,3.754,3.854,3.926,3.922,13042,7.597,3.926,2,0.028,-0.062,0.068,156.0,3,2.070,1.481,2.186,1.625,46.30689760,-79.30971211,45.49,52.77,98.87,15.11,1.78,0.95,20.63,113,59,75,164,1460.00,0,BT,-0.634,0.881,0.635,-0.858
2021-06-16T19:31:32.43,131,4.349,4.251,4.151,4.052,4.198,3.993,13064,7.802,4.198,2,-0.024,0.027,0.036,318.4,4,2.012,1.641,2.192,1.562,46.30691031,-79.30968369,42.00,54.26,101.47,12.36,2.18,0.96,20.63,95,57,67,168,1460.00,0,BT,-0.665,0.885,0.633,-0.887
2021-06-16T19:31:33.43,132,4.647,4.251,4.251,4.151,4.321,4.124,13098,4.255,4.321,2,0.027,0.059,0.065,24.3,4,1.944,1.767,2.012,1.688,46.30692356,-79.30965607,37.90,51.91,104.10,9.12,2.63,1.18,20.62,242,106,124,124,1460.00,0,BT,-0.682,0.886,0.599,-0.929
2021-06-16T19:31:34.43,133,4.647,4.448,4.251,4.349,4.421,4.317,13090,4.394,4.421,2,-0.013,0.044,0.046,343.7,4,1.719,2.015,1.978,1.865,46.30693836,-79.30962964,34.61,48.56,106.74,7.25,2.53,0.96,20.61,308,158,86,518,1460.00,0,BT,-0.763,0.819,0.650,-0.916
2021-06-16T19:31:35.43,134,4.746,4.548,4.251,4.448,4.498,4.433,13060,4.498,4.498,2,-0.041,0.065,0.077,327.7,4,1.628,2.098,1.706,2.049,46.30695648,-79.30960485,32.80,42.85,109.40,4.43,1.30,-0.12,20.61,217,128,102,225,1460.00,0,BT,-0.747,0.838,0.696,-0.882
2021-06-16T19:31:36.43,135,5.045,4.647,4.746,4.746,4.796,4.524,13139,4.777,4.796,2,-0.033,0.062,0.070,332.3,5,1.552,2.106,1.655,2.131,46.30697588,-79.30958339,32.74,37.99,112.02,7.10,0.78,-0.20,20.60,132,407,104,294,1460.00,0,BT,-0.794,0.776,0.667,-0.884
2021-06-16T19:31:37.43,136,5.045,4.845,4.647,4.845,4.842,4.777,13209,4.870,4.842,2,0.008,0.015,0.017,28.9,5,1.574,2.092,1.611,2.164,46.30699685,-79.30956108,33.24,36.75,114.63,5.80,-0.76,-1.81,20.59,293,152,99,356,1460.00,0,BT,-0.756,0.823,0.705,-0.842
2021-06-16T19:31:38.43,137,5.342,5.045,4.845,5.045,5.068,4.973,13258,5.074,5.068,2,0.008,-0.010,0.013,143.5,5,1.557,2.117,1.653,2.150,46.30701585,-79.30954058,33.43,36.84,117.26,6.80,-0.09,-1.04,20.58,139,120,89,338,1460.00,0,BT,-0.763,0.803,0.726,-0.846
2021-06-16T19:31:39.43,138,5.639,5.243,5.045,5.342,5.316,5.146,13245,5.286,5.316,2,0.024,-0.029,0.037,140.3,6,1.658,2.067,1.682,2.120,46.30703523,-79.30951940,33.44,37.71,119.91,6.37,-0.43,-0.95,20.56,367,132,97,466,1460.00,0,BT,-0.724,0.826,0.707,-0.898
2021-06-16T19:31:40.43,139,6.036,5.441,5.243,5.540,5.565,5.385,13310,5.532,5.565,2,0.024,0.003,0.024,83.9,6,1.635,2.062,1.650,2.138,46.30705358,-79.30949801,32.53,37.61,122.54,5.00,0.36,-0.62,20.55,127,176,153,202,1460.00,0,BT,-0.713,0.864,0.690,-0.862
2021-06-16T19:31:41.43,140,6.136,5.739,5.441,5.838,5.788,5.631,13216,5.814,5.788,2,0.048,0.011,0.049,76.7,7,1.603,2.096,1.647,2.134,46.30707148,-79.30947740,31.27,38.02,125.18,4.85,1.12,0.53,20.55,168,176,175,287,1460.00,0,BT,-0.686,0.868,0.714,-0.869
2021-06-16T19:31:42.43,141,6.631,6.036,5.639,6.235,6.136,5.859,13291,6.062,6.136,2,0.039,0.039,0.055,44.8,7,1.557,2.152,1.607,2.200,46.30708946,-79.30945539,29.56,37.15,127.84,1.97,2.02,0.22,20.55,171,81,105,657,1460.00,0,BT,-0.727,0.851,0.676,-0.902
2021-06-16T19:31:43.43,142,6.930,6.235,6.036,6.631,6.458,6.188,13294,6.378,6.458,2,0.052,0.038,0.065,53.8,8,1.476,2.203,1.563,2.233,46.30710861,-79.30943501,27.98,36.57,130.49,1.92,1.81,0.93,20.54,123,168,148,457,1460.00,0,BT,-0.760,0.831,0.655,-0.906
2021-06-16T19:31:44.43,143,NaN,NaN,NaN,NaN,0.000,6.524,13421,6.679,6.458,1,0.093,0.039,0.101,67.4,8,NaN,NaN,1.485,2.313,46.30712958,-79.30941504,26.99,33.53,0.00,2.30,1.04,0.54,20.53,0,0,0,0,1460.00,1,BT,NaN,NaN,NaN,NaN
2021-06-16T19:31:45.43,144,7.425,6.930,6.731,7.327,7.102,6.874,13416,7.098,7.102,2,0.064,0.068,0.094,43.1,9,1.350,2.310,1.458,2.283,46.30715129,-79.30939428,26.40,32.28,0.00,0.60,0.36,-0.86,20.52,167,95,163,378,1460.00,0,BT,-0.759,0.834,0.728,-0.871
2021-06-16T19:31:46.43,145,NaN,NaN,NaN,NaN,0.000,7.228,13596,7.415,7.102,1,0.094,0.059,0.111,58.1,9,NaN,NaN,1.389,2.369,46.30717262,-79.30937576,26.00,31.63,0.00,359.98,-0.09,-0.86,20.51,0,0,0,0,1460.00,1,BT,NaN,NaN,NaN,NaN
2021-06-16T19:31:47.43,146,NaN,NaN,NaN,NaN,0.000,7.518,13267,7.738,7.102,1,0.130,0.084,0.154,57.2,9,NaN,NaN,1.399,2.374,46.30719310,-79.30935889,25.97,30.19,0.00,2.33,0.34,-0.08,20.51,0,0,0,0,1460.00,1,BT,NaN,NaN,NaN,NaN
2021-06-16T19:31:48.43,147,8.121,7.823,7.624,8.220,7.947,7.821,12866,8.076,7.947,2,0.110,0.167,0.200,33.3,11,1.324,2.368,1.361,2.420,46.30721461,-79.30934053,25.93,29.39,0.00,359.54,0.61,-0.39,20.50,283,124,127,292,1460.00,0,BT,-0.788,0.828,0.737,-0.883
2021-06-16T19:31:49.43,148,8.816,8.220,7.823,8.518,8.345,8.107,12672,8.361,8.345,2,0.052,0.147,0.156,19.4,11,1.381,2.326,1.364,2.417,46.30723560,-79.30932287,25.82,30.01,2.71,1.36,0.87,-0.14,20.49,220,143,168,223,1460.00,0,BT,-0.773,0.819,0.700,-0.930
2021-06-16T19:31:50.43,149,NaN,NaN,NaN,NaN,0.000,8.391,12907,8.639,8.345,1,0.076,0.127,0.148,30.8,11,NaN,NaN,1.343,2.404,46.30725784,-79.30930378,25.73,29.10,0.00,359.21,0.78,-1.02,20.49,0,0,0,0,1460.00,1,BT,NaN,NaN,NaN,NaN
2021-06-16T19:31:51.43,150,9.311,8.617,8.418,7.128,8.371,8.688,13315,8.942,8.371,2,0.087,0.097,0.130,41.8,11,1.371,2.343,1.425,2.377,46.30728023,-79.30928653,25.50,29.67,0.00,359.67,0.19,-0.80,20.49,252,164,163,377,1460.00,0,BT,-0.756,0.853,0.723,-0.901
2021-06-16T19:31:52.43,151,NaN,NaN,NaN,NaN,0.000,8.960,12787,9.203,8.371,1,0.075,0.112,0.135,33.7,11,NaN,NaN,1.332,2.435,46.30730122,-79.30926900,25.20,29.17,0.00,0.45,0.60,-0.64,20.49,0,0,0,0,1460.00,1,BT,NaN,NaN,NaN,NaN
2021-06-16T19:31:53.43,152,NaN,NaN,NaN,NaN,0.000,9.214,12645,9.429,8.371,1,0.161,0.177,0.239,42.3,11,NaN,NaN,1.375,2.437,46.30732499,-79.30925062,24.91,29.21,0.00,0.23,-0.60,-1.41,20.48,0,0,0,0,1460.00,1,BT,NaN,NaN,NaN,NaN
2021-06-16T19:31:54.43,153,7.525,46.912,9.113,50.287,28.444,9.408,13844,9.647,28.444,2,-0.076,1.295,1.297,356.6,47,-0.691,1.651,1.303,2.450,46.30734613,-79.30923358,24.68,28.44,0.00,359.95,-0.23,-1.25,20.48,304,455,257,515,1460.00,0,BT,-0.785,-3.636,0.733,-3.610
2021-06-16T19:31:55.43,154,NaN,NaN,NaN,NaN,0.000,9.626,12519,9.822,28.444,1,-0.089,1.294,1.297,356.1,47,NaN,NaN,1.343,2.437,46.30736699,-79.30921636,24.46,28.73,0.00,359.53,0.42,-0.87,20.47,0,0,0,0,1460.00,1,BT,NaN,NaN,NaN,NaN
2021-06-16T19:31:56.43,155,NaN,NaN,NaN,NaN,0.000,0.600,12299,10.050,28.444,1,0.882,1.663,1.882,27.9,47,NaN,NaN,1.286,2.461,46.30738930,-79.30920105,24.47,28.41,0.00,359.74,-0.53,-1.63,20.48,0,0,0,0,1460.00,1,BT,NaN,NaN,NaN,NaN
2021-06-16T19:31:57.43,156,10.502,43.748,27.958,52.183,33.569,9.956,12506,10.202,33.569,2,0.852,-1.229,1.495,145.3,57,1.153,-3.342,1.280,2.484,46.30741340,-79.30918105,24.44,27.63,0.00,359.02,-0.76,-1.96,20.47,250,238,220,239,1460.00,0,BT,-0.784,-3.713,-3.735,-3.729
2021-06-16T19:31:58.43,157,10.701,43.748,27.362,52.779,33.614,0.600,12143,10.397,33.614,2,0.803,-4.024,4.103,168.7,57,1.150,-3.357,1.271,2.468,46.30743369,-79.30916774,24.70,27.45,3.55,358.66,-0.93,-2.10,20.47,169,228,219,233,1460.00,0,BT,-0.803,-3.726,-3.757,-3.757
2021-06-16T19:31:59.43,158,10.899,53.474,46.020,52.779,40.845,10.294,12698,10.541,40.845,2,0.851,-3.913,4.004,167.7,70,1.105,-3.399,1.303,2.453,46.30745894,-79.30914768,25.02,27.32,7.12,359.47,-1.21,-2.13,20.48,113,202,193,213,1460.00,0,BT,-0.791,-3.752,-3.752,-3.752
2021-06-16T19:32:00.43,159,9.907,47.023,50.497,52.879,40.085,10.468,13030,10.747,40.085,2,0.790,-3.925,4.004,168.6,68,1.090,-3.378,1.336,2.448,46.30748018,-79.30913155,25.53,27.12,10.67,359.74,-0.64,-1.82,20.47,151,230,220,219,1460.00,0,BT,-0.825,-3.786,-3.793,-3.794
2021-06-16T19:32:01.43,160,11.296,48.412,56.848,53.474,42.558,0.600,12329,10.906,42.558,2,0.792,-3.937,4.016,168.6,73,1.101,-3.449,1.276,2.490,46.30750074,-79.30911819,25.81,27.55,14.29,1.27,-1.04,-1.80,20.47,210,234,237,240,1460.00,0,BT,-0.763,-3.760,-3.772,-3.769
2021-06-16T19:32:02.43,161,11.594,45.932,45.335,56.748,39.873,10.803,12745,11.071,39.873,2,0.761,-3.972,4.045,169.1,68,1.054,-3.384,1.372,2.435,46.30752489,-79.30909750,26.11,27.66,17.84,0.77,-0.62,-2.02,20.47,217,224,230,236,1460.00,0,BT,-0.781,-3.745,-3.745,-3.761
2021-06-16T19:32:03.43,162,10.105,43.748,51.786,44.244,37.487,10.963,12682,11.328,37.487,2,0.682,-3.983,4.041,170.3,64,1.067,-3.349,1.289,2.471,46.30754620,-79.30908193,26.13,28.02,21.35,1.77,-0.32,-1.27,20.47,146,213,217,225,1460.00,0,BT,-0.789,-3.731,-3.744,-3.731
2021-06-16T19:32:04.43,163,NaN,NaN,NaN,NaN,0.000,0.600,12297,11.534,37.487,1,0.871,-1.091,1.396,141.4,64,NaN,NaN,1.394,2.399,46.30756666,-79.30906671,25.83,29.63,0.00,0.68,-1.21,-1.79,20.47,0,0,0,0,1460.00,1,BT,NaN,NaN,NaN,NaN
2021-06-16T19:32:05.43,164,12.587,54.069,52.282,53.871,43.243,11.457,12559,11.824,43.243,2,0.902,-0.970,1.325,137.1,74,1.054,-3.326,1.302,2.470,46.30759102,-79.30904547,25.56,28.76,0.00,0.43,-0.85,-1.90,20.47,187,215,201,210,1460.00,0,BT,-0.782,-3.693,-3.689,-3.689
2021-06-16T19:32:06.43,165,8.716,61.214,65.581,54.466,47.542,0.600,12185,12.065,47.542,2,0.811,-3.749,3.836,167.8,82,1.101,-3.222,1.380,2.429,46.30761040,-79.30903165,25.04,28.81,3.40,0.18,-0.40,-1.72,20.47,273,465,617,262,1460.00,0,BT,-0.758,-3.672,-3.617,-3.700
2021-06-16T19:32:07.43,166,12.387,46.726,52.085,54.267,41.365,11.974,12791,12.384,41.365,2,0.923,-3.792,3.903,166.3,71,1.203,-3.252,1.294,2.434,46.30763257,-79.30901267,24.45,29.02,6.87,0.38,-0.19,-0.78,20.48,190,230,239,251,1460.00,0,BT,-0.801,-3.699,-3.722,-3.724
2021-06-16T19:32:08.43,167,NaN,NaN,NaN,NaN,0.000,12.268,12755,12.582,41.365,1,0.961,-0.918,1.329,133.7,71,NaN,NaN,1.287,2.451,46.30765451,-79.30899460,23.98,28.51,0.00,0.81,-0.13,-1.04,20.47,0,0,0,0,1460.00,1,BT,NaN,NaN,NaN,NaN
2021-06-16T19:32:09.43,168,NaN,NaN,NaN,NaN,0.000,12.539,12786,12.798,41.365,1,0.988,1.875,2.120,27.8,71,NaN,NaN,1.284,2.444,46.30767816,-79.30897648,23.82,27.41,0.00,358.15,-0.72,-1.86,20.47,0,0,0,0,1460.00,1,BT,NaN,NaN,NaN,NaN
2021-06-16T19:32:10.43,169,NaN,NaN,NaN,NaN,0.000,12.711,12790,13.004,41.365,1,0.981,1.883,2.123,27.5,71,NaN,NaN,1.246,2.487,46.30770025,-79.30895929,24.12,26.74,0.00,358.45,-0.38,-2.03,20.47,0,0,0,0,1460.00,1,BT,NaN,NaN,NaN,NaN
2021-06-16T19:32:11.43,170,NaN,NaN,NaN,NaN,0.000,0.600,12367,13.076,41.365,1,0.929,1.942,2.153,25.6,71,NaN,NaN,1.196,2.553,46.30772103,-79.30894831,24.90,26.18,0.00,2.06,-0.28,-1.06,20.47,0,0,0,0,1460.00,1,BT,NaN,NaN,NaN,NaN
2021-06-16T19:32:12.43,171,13.480,53.474,53.771,54.764,43.915,12.870,12684,13.156,43.915,2,0.834,-0.867,1.203,136.1,75,1.035,-3.332,1.281,2.514,46.30774686,-79.30892885,26.18,25.78,0.00,1.42,-0.88,-1.73,20.47,225,271,259,264,1460.00,0,BT,-0.835,-3.741,-3.741,-3.745
2021-06-16T19:32:13.43,172,12.784,53.672,44.641,54.764,41.472,12.917,12552,13.089,41.472,2,0.668,-3.885,3.942,170.2,71,0.973,-3.320,1.272,2.464,46.30776845,-79.30891204,27.33,27.85,3.46,2.71,-0.40,-1.52,20.47,160,287,231,281,1460.00,0,BT,-0.822,-3.751,-3.726,-3.757
2021-06-16T19:32:14.43,173,12.983,47.520,46.726,49.703,39.259,0.600,11884,13.052,39.259,2,0.627,-3.911,3.961,170.9,67,0.948,-3.323,1.394,2.435,46.30778909,-79.30889878,28.23,28.39,6.92,4.27,-0.59,-1.09,20.46,176,271,262,266,1460.00,0,BT,-0.837,-3.733,-3.729,-3.743
2021-06-16T19:32:15.43,174,NaN,NaN,NaN,NaN,0.000,12.746,12670,13.020,39.259,1,0.839,-1.015,1.317,140.4,67,NaN,NaN,1.425,2.425,46.30781385,-79.30887537,28.88,29.57,0.00,2.10,-0.70,-2.19,20.46,0,0,0,0,1460.00,1,BT,NaN,NaN,NaN,NaN
2021-06-16T19:32:16.43,175,36.096,46.317,54.069,54.665,47.781,12.674,12705,12.834,47.781,2,0.394,0.682,0.787,30.1,82,-0.026,-0.081,1.465,2.407,46.30783577,-79.30885924,28.92,30.84,0.00,3.83,-1.01,-1.33,20.46,206,505,206,221,1460.00,0,BT,-3.752,-3.712,-3.750,-3.753
2021-06-16T19:32:17.43,176,39.580,52.382,52.183,54.565,49.674,0.600,12265,12.676,49.674,2,-0.340,-0.558,0.653,211.3,86,-0.054,-0.100,1.514,2.334,46.30785425,-79.30884302,28.70,31.85,0.11,3.03,-0.52,-1.13,20.46,261,251,249,255,1460.00,0,BT,-3.690,-3.725,-3.727,-3.726
2021-06-16T19:32:18.43,177,32.622,49.504,48.909,49.603,45.134,12.373,12913,12.528,45.134,2,-0.357,-0.542,0.649,213.3,78,-0.023,0.049,1.473,2.383,46.30787433,-79.30882296,28.35,31.98,0.17,4.52,0.68,-0.09,20.47,230,234,212,234,1460.00,0,BT,-3.712,-3.708,-3.708,-3.707
2021-06-16T19:32:19.43,178,32.920,53.970,52.382,54.764,48.514,12.205,12884,12.329,48.514,2,-0.330,-0.464,0.569,215.4,84,-0.077,-0.058,1.490,2.367,46.30789841,-79.30880141,27.92,32.25,0.26,1.69,-0.53,-1.25,20.46,228,238,231,228,1460.00,0,BT,-3.753,-3.756,-3.749,-3.755
2021-06-16T19:32:20.43,179,32.225,49.405,54.069,54.764,47.600,0.600,12327,12.144,47.600,2,-0.332,-0.488,0.591,214.2,82,-0.050,-0.044,1.444,2.401,46.30791786,-79.30878493,27.34,31.96,0.33,1.73,-0.19,-1.21,20.46,361,262,223,222,1460.00,0,BT,-3.702,-3.694,-3.714,-3.715
2021-06-16T19:32:21.43,180,31.828,54.466,51.092,53.374,47.693,11.812,12513,11.970,47.693,2,-0.349,-0.520,0.626,213.9,82,-0.075,-0.034,1.450,2.384,46.30794023,-79.30876307,26.64,31.78,0.41,1.89,-0.27,-1.15,20.46,225,232,244,249,1460.00,0,BT,-3.727,-3.724,-3.718,-3.725
2021-06-16T19:32:22.43,181,31.828,54.466,60.420,54.367,50.255,0.600,12382,11.847,50.255,2,-0.358,-0.495,0.611,215.9,87,-0.121,-0.061,1.395,2.437,46.30796043,-79.30874690,26.25,31.06,0.55,358.81,-0.20,-1.86,20.46,392,221,363,227,1460.00,0,BT,-3.710,-3.732,-3.714,-3.732
2021-06-16T19:32:23.43,182,31.530,49.405,57.939,52.482,47.821,0.600,12483,11.673,47.821,2,-0.365,-0.504,0.622,215.9,82,-0.073,-0.039,1.460,2.357,46.30798153,-79.30872807,25.64,31.44,0.63,359.79,-0.02,-1.23,20.47,213,212,199,217,1460.00,0,BT,-3.755,-3.753,-3.764,-3.759
2021-06-16T19:32:24.43,183,31.232,54.466,53.771,54.565,48.486,11.376,13174,11.579,48.486,2,-0.340,-0.485,0.592,215.1,84,-0.087,-0.015,1.359,2.460,46.30800373,-79.30870722,25.54,29.39,0.72,359.01,0.25,-1.20,20.46,215,213,212,217,1460.00,0,BT,-3.713,-3.715,-3.716,-3.714
2021-06-16T19:32:25.43,184,31.232,54.267,53.771,52.977,48.057,11.260,12813,11.450,48.057,2,-0.337,-0.482,0.588,214.9,83,-0.076,-0.029,1.373,2.426,46.30802592,-79.30868978,25.43,29.59,0.80,0.20,-0.04,-1.14,20.47,243,242,246,257,1460.00,0,BT,-3.721,-3.719,-3.720,-3.720
2021-06-16T19:32:26.43,185,30.935,53.970,47.607,55.161,46.885,11.179,12783,11.373,46.885,2,-0.358,-0.459,0.582,218.0,81,-0.083,0.063,1.349,2.450,46.30804694,-79.30867250,25.74,28.49,0.90,0.49,0.69,-0.82,20.46,231,246,549,249,1460.00,0,BT,-3.698,-3.699,-3.666,-3.700
2021-06-16T19:32:27.43,186,31.034,49.305,49.008,50.100,44.856,11.090,12894,11.307,44.856,2,-0.393,-0.575,0.696,214.4,77,-0.115,-0.087,1.334,2.415,46.30807140,-79.30865427,26.47,28.75,1.05,0.20,-0.71,-1.91,20.46,263,267,267,277,1460.00,0,BT,-3.730,-3.730,-3.726,-3.731
2021-06-16T19:32:28.43,187,30.935,48.512,44.939,45.634,42.503,0.600,12427,11.270,42.503,2,-0.383,-0.560,0.678,214.4,73,-0.066,-0.015,1.316,2.456,46.30809185,-79.30864037,26.96,28.78,1.12,3.26,0.06,-0.87,20.49,231,236,225,242,1460.00,0,BT,-3.760,-3.761,-3.758,-3.757
2021-06-16T19:32:29.43,188,32.026,53.871,41.455,54.168,45.373,10.985,12601,11.220,45.373,2,-0.333,-0.485,0.588,214.5,78,-0.048,-0.003,1.402,2.465,46.30811421,-79.30862133,27.72,28.86,1.16,4.51,0.18,-0.64,20.53,250,261,326,257,1460.00,0,BT,-3.755,-3.753,-3.757,-3.753
2021-06-16T19:32:30.43,189,30.835,54.367,29.247,54.267,42.162,11.014,12566,11.246,42.162,2,-0.369,-0.548,0.660,213.9,72,-0.100,-0.059,1.345,2.421,46.30813757,-79.30860177,28.31,29.33,1.28,2.99,-0.31,-1.57,20.56,226,225,223,240,1460.00,0,BT,-3.733,-3.734,-3.738,-3.734
2021-06-16T19:32:31.43,190,30.538,49.703,30.637,54.168,41.246,11.032,12577,11.252,41.246,2,-0.374,-0.602,0.708,211.8,71,-0.047,-0.117,1.421,2.345,46.30815832,-79.30858475,28.79,30.61,1.41,4.19,-0.05,-1.01,20.59,554,220,222,229,1460.00,0,BT,-3.597,-3.677,-3.678,-3.672
2021-06-16T19:32:32.43,191,35.809,53.672,28.950,53.871,43.032,11.037,12689,11.237,43.032,2,-0.369,-0.593,0.699,211.8,74,-0.109,-0.121,1.442,2.411,46.30818199,-79.30856495,29.19,30.37,1.57,3.16,-0.95,-1.91,20.61,287,231,229,240,1460.00,0,BT,-3.735,-3.755,-3.750,-3.755
2021-06-16T19:32:33.43,192,30.438,53.374,28.752,53.771,41.555,0.600,12403,11.265,41.555,2,-0.411,-0.644,0.764,212.5,71,-0.094,-0.166,1.464,2.326,46.30820077,-79.30855010,29.46,31.47,1.76,3.36,-0.58,-1.90,20.61,609,241,237,255,1460.00,0,BT,-3.690,-3.766,-3.769,-3.769
2021-06-16T19:32:34.43,193,30.637,48.313,28.454,48.809,39.039,11.107,12523,11.323,39.039,2,-0.414,-0.577,0.710,215.7,67,-0.086,-0.042,1.532,2.300,46.30822260,-79.30852835,29.39,32.39,1.86,3.78,-0.34,-1.31,20.63,218,225,224,226,1460.00,0,BT,-3.699,-3.695,-3.693,-3.695
2021-06-16T19:32:35.43,194,30.538,53.771,27.660,45.138,39.289,0.600,12204,11.324,39.289,2,-0.423,-0.559,0.701,217.1,67,-0.093,-0.009,1.457,2.310,46.30824198,-79.30851166,28.90,33.02,1.95,2.94,0.53,-0.86,20.63,219,255,245,240,1460.00,0,BT,-3.711,-3.736,-3.728,-3.710
2021-06-16T19:32:36.43,195,30.141,53.672,29.049,63.982,44.188,11.047,12638,11.258,44.188,2,-0.484,-0.523,0.713,222.8,76,-0.259,-0.069,1.521,2.316,46.30826323,-79.30849033,28.62,32.37,2.22,3.47,0.09,-0.88,20.64,252,249,254,635,1460.00,0,BT,-3.703,-3.704,-3.702,-3.530
2021-06-16T19:32:37.43,196,30.141,58.138,29.149,54.267,42.924,11.075,12715,11.234,42.924,2,-0.471,-0.524,0.704,221.9,74,-0.074,0.014,1.428,2.323,46.30828344,-79.30847059,28.20,32.21,2.29,3.93,0.45,-1.09,20.65,268,264,253,275,1460.00,0,BT,-3.688,-3.681,-3.686,-3.690
2021-06-16T19:32:38.43,197,31.629,53.771,29.943,43.947,39.837,11.054,12602,11.242,39.837,2,-0.414,-0.591,0.722,215.0,68,-0.086,-0.116,1.496,2.354,46.30830552,-79.30845152,28.09,32.10,2.44,3.49,-0.03,-1.15,20.64,620,244,226,239,1460.00,0,BT,-3.630,-3.722,-3.701,-3.693
2021-06-16T19:32:39.43,198,34.111,51.985,28.752,52.172,41.718,0.600,12476,11.173,41.718,2,-0.431,-0.662,0.789,213.1,71,-0.097,-0.106,1.388,2.364,46.30832642,-79.30843540,28.29,31.24,2.58,2.60,-0.85,-1.88,20.64,225,212,211,222,1460.00,0,BT,-3.697,-3.709,-3.708,-3.718
2021-06-16T19:32:40.43,199,30.737,44.432,28.950,53.970,39.482,11.028,12518,11.186,39.482,2,-0.391,-0.621,0.734,212.2,67,-0.050,-0.059,1.440,2.389,46.30834958,-79.30841444,28.90,30.77,2.66,5.02,-0.58,-1.32,20.65,218,386,222,216,1460.00,0,BT,-3.737,-3.708,-3.738,-3.734
2021-06-16T19:32:41.43,200,30.538,43.153,34.320,54.764,40.620,10.982,13049,11.196,40.620,2,-0.425,-0.609,0.742,214.9,69,-0.115,-0.058,1.394,2.358,46.30837203,-79.30839452,29.85,30.88,2.79,3.23,-0.90,-2.07,20.64,254,265,301,237,1460.00,0,BT,-3.721,-3.706,-3.689,-3.724
2021-06-16T19:32:42.43,201,30.438,48.710,29.546,54.069,40.642,0.600,12360,11.154,40.642,2,-0.456,-0.603,0.756,217.1,69,-0.105,-0.058,1.480,2.366,46.30839127,-79.30837979,30.64,31.74,2.91,4.99,-0.97,-1.86,20.65,231,248,233,244,1460.00,0,BT,-3.714,-3.698,-3.681,-3.712
2021-06-16T19:32:43.43,202,61.798,51.676,29.446,54.367,49.215,10.950,12575,11.159,49.215,2,-0.323,-0.587,0.669,208.8,85,0.008,-0.254,1.444,2.352,46.30841509,-79.30835659,31.79,31.40,3.16,5.30,-0.84,-2.15,20.64,520,535,252,268,1460.00,0,BT,-3.539,-3.616,-3.700,-3.700
2021-06-16T19:32:44.43,203,67.367,53.871,30.041,54.267,51.282,10.963,12886,11.187,51.282,2,-0.315,-0.588,0.667,208.2,89,-0.095,-0.102,1.559,2.350,46.30843672,-79.30833834,32.74,32.57,3.30,7.09,-0.99,-1.62,20.63,391,226,229,244,1460.00,0,BT,-3.722,-3.730,-3.729,-3.731
2021-06-16T19:32:45.43,204,53.771,58.038,29.149,50.683,47.861,11.002,12839,11.184,47.861,2,-0.478,-0.551,0.729,221.0,82,-0.235,-0.106,1.540,2.310,46.30845784,-79.30831639,33.57,33.56,3.56,5.91,-0.79,-2.35,20.64,238,220,230,572,1460.00,0,BT,-3.702,-3.707,-3.704,-3.635
2021-06-16T19:32:46.43,205,54.267,54.764,29.644,54.267,48.159,10.987,12755,11.230,48.159,2,-0.494,-0.525,0.721,223.3,83,-0.117,-0.078,1.575,2.246,46.30847883,-79.30829745,34.43,34.37,3.70,8.30,-0.96,-1.80,20.63,219,215,224,212,1460.00,0,BT,-3.686,-3.686,-3.675,-3.685
2021-06-16T19:32:47.43,206,66.772,49.206,29.644,49.305,48.677,11.053,12908,11.292,48.677,2,-0.407,-0.575,0.704,215.3,84,-0.088,-0.159,1.691,2.261,46.30849849,-79.30827679,35.21,35.56,3.88,8.30,-0.46,-1.57,20.63,613,234,234,239,1460.00,0,BT,-3.611,-3.704,-3.703,-3.702
2021-06-16T19:32:48.43,207,56.947,55.955,30.835,54.565,49.490,11.131,13453,11.364,49.490,2,-0.448,-0.543,0.704,219.5,85,-0.133,-0.081,1.611,2.234,46.30851992,-79.30825476,35.69,36.20,4.03,9.09,-1.03,-1.94,20.63,231,239,231,240,1460.00,0,BT,-3.724,-3.719,-3.712,-3.715
2021-06-16T19:32:49.43,208,52.570,61.612,30.438,54.466,49.728,11.240,12756,11.505,49.728,2,-0.467,-0.501,0.684,223.0,86,-0.130,-0.080,1.709,2.172,46.30853950,-79.30823339,36.38,36.80,4.19,8.80,-0.84,-1.93,20.63,224,198,215,221,1460.00,0,BT,-3.719,-3.722,-3.719,-3.720
2021-06-16T19:32:50.43,209,55.459,49.504,49.691,53.871,52.079,11.410,12798,11.724,52.079,2,-0.406,-0.453,0.609,221.9,90,-0.090,-0.083,1.684,2.198,46.30855959,-79.30821195,36.62,37.98,4.31,9.87,-0.98,-1.57,20.63,230,248,247,237,1460.00,0,BT,-3.707,-3.698,-3.707,-3.706
2021-06-16T19:32:51.43,210,49.703,48.412,53.970,48.710,50.167,11.612,12867,11.897,50.167,2,-0.449,-0.465,0.646,224.0,87,-0.143,-0.061,1.750,2.144,46.30857826,-79.30818790,36.77,38.91,4.47,8.42,-0.51,-2.07,20.64,255,236,223,236,1460.00,0,BT,-3.717,-3.717,-3.720,-3.714
2021-06-16T19:32:52.43,211,55.062,45.523,57.443,57.840,53.913,11.833,13248,12.126,53.913,2,-0.396,-0.446,0.596,221.6,93,-0.016,-0.073,1.681,2.168,46.30859788,-79.30816733,37.03,38.91,4.54,10.69,-0.81,-1.43,20.63,260,569,266,248,1460.00,0,BT,-3.677,-3.622,-3.688,-3.685
2021-06-16T19:32:53.43,212,50.993,54.962,54.665,55.657,54.047,12.066,12782,12.376,54.047,2,-0.379,-0.427,0.571,221.5,94,-0.107,-0.051,1.828,2.161,46.30861689,-79.30814365,37.31,39.28,4.66,9.78,-0.49,-1.63,20.63,206,212,194,215,1460.00,0,BT,-3.711,-3.710,-3.712,-3.713
2021-06-16T19:32:54.43,213,55.259,55.558,54.764,54.962,55.090,12.304,12803,12.548,55.090,2,-0.426,-0.421,0.598,225.3,95,-0.151,-0.072,1.731,2.144,46.30863648,-79.30811889,37.49,39.97,4.83,8.84,-0.69,-2.28,20.64,203,207,209,206,1460.00,0,BT,-3.689,-3.687,-3.691,-3.689
2021-06-16T19:32:55.43,214,44.741,55.756,56.748,53.176,52.597,12.489,13129,12.799,52.597,2,-0.451,-0.448,0.636,225.2,91,-0.122,-0.079,1.811,2.133,46.30865502,-79.30809707,37.69,39.62,4.97,9.89,-0.31,-1.75,20.64,250,214,208,250,1460.00,0,BT,-3.658,-3.690,-3.693,-3.684
2021-06-16T19:32:56.43,215,55.756,50.100,50.000,55.756,52.869,12.730,13834,12.958,52.869,2,-0.441,-0.422,0.610,226.3,91,-0.081,-0.031,1.798,2.080,46.30867396,-79.30807451,37.73,41.07,5.06,10.70,-0.38,-1.31,20.63,250,250,261,245,1460.00,0,BT,-3.690,-3.684,-3.684,-3.692
2021-06-16T19:32:57.43,216,58.535,56.650,55.161,55.756,56.503,12.880,13413,13.117,56.503,2,-0.402,-0.389,0.559,225.9,98,-0.103,-0.047,1.890,2.074,46.30869286,-79.30805049,37.40,41.17,5.17,9.45,-0.52,-1.48,20.63,224,228,238,237,1460.00,0,BT,-3.676,-3.677,-3.673,-3.674
2021-06-16T19:32:58.43,217,54.367,53.573,53.573,54.367,53.964,13.016,13245,13.235,53.964,2,-0.381,-0.396,0.549,223.9,93,-0.034,-0.030,1.726,2.122,46.30871102,-79.30802939,37.24,41.27,5.22,12.36,-0.39,-0.56,20.63,229,228,225,233,1460.00,0,BT,-3.674,-3.672,-3.672,-3.674
2021-06-16T19:32:59.43,218,58.833,49.989,65.780,55.955,57.591,13.141,13365,13.361,57.591,2,-0.350,-0.328,0.479,226.9,100,-0.079,0.054,1.817,2.076,46.30873017,-79.30800225,37.08,40.68,5.31,8.73,-0.39,-1.84,20.63,209,436,472,204,1460.00,0,BT,-3.682,-3.632,-3.605,-3.682
2021-06-16T19:33:00.43,219,50.695,50.497,54.565,50.894,51.648,13.260,12921,13.525,51.648,2,-0.427,-0.411,0.593,226.2,89,-0.089,-0.071,1.766,2.113,46.30874889,-79.30798058,36.85,40.50,5.43,9.95,-0.52,-1.41,20.63,284,278,270,286,1460.00,0,BT,-3.677,-3.676,-3.695,-3.677
2021-06-16T19:33:01.43,220,56.153,55.856,55.062,55.856,55.696,13.339,13254,13.598,55.696,2,-0.411,-0.404,0.576,225.5,97,-0.127,-0.065,1.802,2.093,46.30876832,-79.30795603,36.87,40.40,5.57,9.51,-0.71,-1.88,20.63,254,248,262,263,1460.00,0,BT,-3.703,-3.703,-3.700,-3.702
2021-06-16T19:33:02.43,221,55.955,64.489,55.558,56.748,58.171,13.456,13216,13.668,58.171,2,-0.365,-0.400,0.542,222.4,101,-0.035,-0.078,1.755,2.167,46.30878854,-79.30793299,37.31,39.51,5.65,10.36,-1.13,-1.99,20.63,259,625,274,245,1460.00,0,BT,-3.695,-3.614,-3.689,-3.695
2021-06-16T19:33:03.43,222,62.604,55.756,55.657,56.352,57.558,13.522,13436,13.749,57.558,2,-0.354,-0.384,0.522,222.7,100,-0.110,-0.036,1.824,2.101,46.30880643,-79.30791086,37.61,39.68,5.77,10.15,-0.51,-1.62,20.63,218,216,207,216,1460.00,0,BT,-3.666,-3.654,-3.654,-3.654
2021-06-16T19:33:04.43,223,65.680,55.955,55.657,56.451,58.340,13.568,13159,13.826,58.340,2,-0.402,-0.468,0.617,220.6,101,-0.117,-0.222,1.823,2.119,46.30882773,-79.30788636,37.78,40.75,6.02,10.31,-1.59,-2.10,20.62,513,214,213,219,1460.00,0,BT,-3.561,-3.642,-3.641,-3.644
2021-06-16T19:33:05.43,224,50.993,55.657,51.191,51.191,52.256,13.674,13002,13.921,52.256,2,-0.419,-0.524,0.671,218.7,90,-0.056,-0.059,1.780,2.113,46.30884480,-79.30786721,38.10,39.92,6.10,13.04,-0.74,-0.70,20.63,250,270,262,258,1460.00,0,BT,-3.633,-3.645,-3.633,-3.633
2021-06-16T19:33:06.43,225,56.054,58.237,55.657,56.947,56.642,13.729,13590,13.969,56.642,2,-0.443,-0.452,0.633,224.4,98,-0.193,-0.120,1.823,2.096,46.30886567,-79.30783691,38.26,41.05,6.33,8.51,-1.37,-2.88,20.63,231,204,211,208,1460.00,0,BT,-3.687,-3.688,-3.686,-3.686
2021-06-16T19:33:07.43,226,48.015,56.650,56.252,56.252,54.271,13.761,13168,14.030,54.271,2,-0.484,-0.480,0.682,225.2,94,-0.125,-0.081,1.809,2.096,46.30888177,-79.30781620,38.05,41.46,6.48,10.21,-0.42,-1.86,20.63,261,228,232,239,1460.00,0,BT,-3.699,-3.732,-3.729,-3.731
2021-06-16T19:33:08.43,227,56.451,56.252,55.657,56.848,56.265,13.848,13270,14.076,56.265,2,-0.413,-0.406,0.579,225.5,98,-0.125,-0.066,1.836,2.083,46.30890118,-79.30779246,37.84,41.09,6.62,10.10,-0.68,-1.87,20.64,203,219,202,209,1460.00,0,BT,-3.683,-3.685,-3.685,-3.685
2021-06-16T19:33:09.43,228,56.153,61.115,55.259,56.352,57.195,13.897,13342,14.112,57.195,2,-0.404,-0.403,0.571,225.0,99,-0.104,-0.076,1.773,2.125,46.30891992,-79.30776848,37.65,41.09,6.75,8.86,-0.78,-2.10,20.64,264,459,258,263,1460.00,0,BT,-3.686,-3.657,-3.691,-3.687
